,City,Lat,Lng,Temp,Humidity,Cloudiness,Wind Speed,Country,Date,City ID
0,machali,-34.64481672080463,-69.88335410415854,,,,,,,
1,padang,-9.490874881841378,87.20659260267786,82.04,75,38,7.36,ID,1562504482,1633419.0
2,markovo,56.78181630683588,40.22538165225657,86.32,54,0,16.11,BG,1562504998,727921.0
3,busselton,-64.05034008633075,86.12999064575195,52.27,73,3,18.28,AU,1562504999,2075265.0
4,gat,23.750676657667128,12.073141370402737,84.2,62,0,8.05,SN,1562504999,2249901.0
5,albany,-42.6449333331788,114.88108125692509,66.92,59,1,9.17,US,1562504411,5106834.0
6,punta arenas,-81.48501765279518,-122.30375699922982,36.27,100,90,4.7,CL,1562504999,3874787.0
7,saint-philippe,-26.617304567665222,56.44900873464354,65.3,59,1,5.82,CA,1562504999,6138908.0
8,casper,43.818319667926914,-106.43307172931164,51.1,87,1,6.93,US,1562504411,5820705.0
9,ushuaia,-84.33475812273878,-40.213116365872025,35.6,88,20,4.7,AR,1562505000,3833367.0
10,metro,-3.9762195962825615,105.99409112698908,76.46,88,95,4.59,ID,1562504596,1635283.0
11,edmundston,47.28008766015037,-68.5041046236166,61.32,55,1,12.75,CA,1562504486,6545023.0
12,bluff,-78.3080668948746,155.31458123206892,64.4,79,100,18.72,AU,1562505000,2175403.0
13,asau,-7.931577372423817,178.37376074553725,,,,,,,
14,vuktyl,63.845924136416784,57.31679548503172,64.4,51,97,8.95,RU,1562504484,470905.0
15,mutis,5.892990643694247,-78.29957136784576,81.14,80,74,4.94,CO,1562504484,3689325.0
16,airai,13.156121836595489,141.61924755589376,67.46,73,20,5.59,TL,1562504429,1651810.0
17,lasa,32.1277710550705,87.71522456615526,88.02,74,20,12.75,CY,1562504485,146639.0
18,tasiilaq,84.8082461760064,-36.99509766218961,42.8,75,15,6.93,GL,1562504485,3424607.0
19,chitral,35.858765435163434,70.84598980762081,61.88,28,24,9.06,PK,1562504409,1181065.0
20,vila franca do campo,40.32453916550381,-19.25429735891177,69.8,83,75,4.7,PT,1562504486,3372472.0
21,skjervoy,74.86505979469891,20.623060146702926,64.4,45,0,16.11,NO,1562504486,777682.0
22,lagoa,43.96504958436262,-29.04405894227034,72.68,78,20,13.87,PT,1562504486,2267254.0
23,tecoanapa,16.134018821664654,-98.77196695338594,78.8,83,40,4.7,MX,1562504486,3532499.0
24,atuona,7.143266081765418,-132.93735002227427,79.88,80,39,17.81,PF,1562505002,4020109.0
25,tura,64.72997032319182,97.50010265334743,67.1,75,95,11.97,RU,1562504486,2014833.0
26,olga,43.61638892474639,134.63600898796398,62.96,72,90,3.36,US,1562504487,5368361.0
27,benghazi,33.28061844916256,19.314786825648383,82.76,62,0,13.4,LY,1562504421,88319.0
28,yulara,-27.535886491858875,125.67083404070797,60.8,38,0,8.05,AU,1562504487,6355222.0
29,cartagena del chaira,0.9700890200126366,-74.80941848762484,69.8,99,94,2.8,CO,1562504487,3792382.0
30,mar del plata,-60.97962473962656,-37.8753031494868,38.84,73,44,4.47,AR,1562505003,3863379.0
31,sur,22.505820193517962,61.66733065848939,93.56,49,0,7.27,OM,1562504421,286245.0
32,laguna,-47.37131582230206,-27.78731392893951,75.2,94,75,4.7,BZ,1562504413,3581398.0
33,isoka,-10.207861404492462,32.371727311738994,82.4,29,3,4.21,ZM,1562504488,916668.0
34,odweyne,9.257363550048439,45.94869214657831,,,,,,,
35,kaitangata,-75.7094793364052,177.82489613487792,45.0,61,85,20,NZ,1562504488,2208248.0
36,goderich,3.337044170451989,-19.81981686393803,67.21,67,7,8.01,CA,1562504355,5962442.0
37,illoqqortoormiut,76.88514318784195,-20.76689991458747,,,,,,,
38,talara,-5.604625085854124,-85.0367434248188,65.12,88,25,14.14,PE,1562504489,3691582.0
39,nuuk,64.12033810594826,-49.83909819449195,51.8,66,75,8.05,GL,1562505006,3421319.0
40,vaini,-70.59877844434905,-169.1695077775377,73.4,94,75,11.41,IN,1562505006,1273574.0
41,fairbanks,65.59153662749463,-144.69748505189722,60.37,55,90,3.36,US,1562504489,5861897.0
42,nakamura,32.11236531638025,133.70592915211296,78.33,73,75,12.75,JP,1562504489,1856057.0
43,qaanaaq,86.98014234904653,-73.3414721915193,45.68,52,64,7.36,GL,1562505007,3831208.0
44,butaritari,7.341533801749577,163.7734340789671,83.48,74,100,7.54,KI,1562505008,2110227.0
45,cayenne,10.615906067776038,-44.29693543195799,78.8,88,42,3.36,GF,1562504419,3382160.0
46,rikitea,-16.829826535299446,-120.2521153039296,69.62,86,100,28.61,PF,1562505008,4030556.0
47,puerto escondido,5.739939210572942,-100.94775672744464,73.4,83,5,4.7,MX,1562504490,3520994.0
48,tuktoyaktuk,76.65353611836764,-134.37185726509756,35.24,95,99,9.15,CA,1562505008,6170031.0
49,cantapoy,9.412017156238761,125.34836138229753,84.38,77,0,1.19,PH,1562504490,1718886.0
50,port elizabeth,-65.31297273968485,33.23273115790934,76.91,88,20,5.82,US,1562504490,4501427.0
51,gwadar,23.006539562617917,62.53336626553005,84.74,84,0,15.12,PK,1562504395,1177446.0
52,cape town,-70.66974193290535,-4.48362137479657,62.76,67,40,12.75,ZA,1562504491,3369157.0
53,nador,31.46869976092613,-1.934069148419951,78.8,44,0,12.75,MA,1562504280,2541479.0
54,yellowknife,68.59837755459253,-110.19726535940543,50.0,76,75,14.99,CA,1562504844,6185377.0
55,niamey,13.829675809104884,2.3120104972855984,102.2,20,0,16.11,NE,1562504491,2440485.0
56,kapaa,25.297687697503363,-157.58905260632955,77.67,74,40,10.29,US,1562505009,5848280.0
57,boddam,57.086387997858736,1.434763132498233,54.66,82,75,19.46,GB,1562504491,2655288.0
58,ajdabiya,30.49945050004365,20.55883759630214,77.54,84,0,14.07,LY,1562504492,89113.0
59,mataura,-28.301959489819048,-152.07167834813345,45.0,80,97,18.01,NZ,1562505010,6201424.0
60,asuncion,-25.32866581740342,-58.429387727322336,48.2,70,0,5.82,PY,1562504215,3439389.0
61,gilazi,41.403342782143,49.592289788848746,,,,,,,
62,inuvik,68.20584695176419,-132.42710977193087,44.6,81,75,5.82,CA,1562504492,5983607.0
63,khonuu,67.39398520111584,144.75196961429248,,,,,,,
64,hilo,9.347371642189245,-144.17023117033347,70.92,78,90,5.82,US,1562504932,5855927.0
65,cabo san lucas,14.692656306979387,-116.25740512983151,77.74,25,75,16.11,MX,1562504401,3985710.0
66,mahebourg,-35.00663508125136,70.0975436301974,76.46,69,20,12.75,MU,1562504493,934322.0
67,zaraza,8.386608036624494,-66.03128601019654,77.54,83,38,1.95,VE,1562504493,3625066.0
68,tuatapere,-56.47776692315461,159.12262387748405,45.0,80,100,17,NZ,1562504493,2180815.0
69,hermanus,-72.76556604515613,-2.790125408898433,62.11,73,96,8.01,ZA,1562505012,3366880.0
70,khatanga,69.8007148574248,99.41834371351354,51.8,66,78,17.45,RU,1562505012,2022572.0
71,vestmannaeyjar,57.76447259363687,-21.851479507531593,55.4,82,20,12.75,IS,1562504493,3412093.0
72,pervomayskiy,54.749664792149645,61.09719113538242,65.48,66,36,11.65,RU,1562504494,510911.0
73,cidreira,-33.16888146453928,-48.452086627709036,48.02,73,58,6.64,BR,1562504494,3466165.0
74,acarau,6.840549812956212,-40.10057075329587,,,,,,,
75,smithers,59.241484426155296,-128.10407400289245,55.4,100,90,2.24,CA,1562504412,6149996.0
76,bredasdorp,-84.96889152016176,17.030892441499162,63.46,55,37,14.99,ZA,1562505013,1015776.0
77,torbay,44.36628427685778,-43.194591992471516,60.76,93,90,16.11,CA,1562504802,6167817.0
78,chake chake,-5.7881972347959305,40.80482164701908,79.16,76,68,13.8,TZ,1562504494,160677.0
79,cherskiy,71.74152762006997,162.88820273865394,64.76,45,14,13,RU,1562505014,2126199.0
80,nanortalik,50.273947681947476,-36.84470154029182,50.54,53,97,11.27,GL,1562504894,3421765.0
81,taoudenni,22.113548590652726,-3.2541685602456027,113.36,7,0,0.47,ML,1562505015,2450173.0
82,oranjemund,-30.88278504944025,12.276658963495208,58.28,82,0,13.98,ZA,1562504495,3354071.0
83,agde,42.636222388046036,3.6248142751690864,92.46,39,0,8.05,FR,1562504495,3038638.0
84,ugoofaaru,5.814124628135929,65.97231024489145,84.56,75,65,10.74,MV,1562504495,1337619.0
85,port alfred,-59.91337625395633,32.84951676801671,62.01,68,55,8.01,ZA,1562505016,964432.0
86,puerto ayora,4.1221071774981795,-92.8986193236395,70.92,83,20,3.36,EC,1562505016,3652764.0
87,souillac,-40.64875090172133,66.05054919313366,82.72,58,0,8.05,FR,1562504496,3026644.0
88,college,64.11843334403335,-149.92467556773255,61.23,55,90,3.36,US,1562504496,5859699.0
89,srednekolymsk,72.47789907510611,153.82716086211315,61.16,56,58,7.29,RU,1562505016,2121025.0
90,jamestown,-36.55772745831011,-12.067747927768124,47.12,86,12,2.51,AU,1562505017,2069194.0
91,riyadh,22.046485808209823,44.33313098570147,113.0,5,0,5.82,SA,1562504303,108410.0
92,manjeshwar,12.011452421851772,73.59139691394009,86.0,70,20,11.41,IN,1562504497,1263780.0
93,komsomolskiy,76.5089058526176,174.22089123784968,59.18,46,20,18.68,RU,1562504497,1486910.0
94,katsuura,21.76814445624413,154.48409906085476,73.13,73,20,1.12,JP,1562505018,1865309.0
95,hernani,43.10528344107209,-1.8419234840974354,73.04,78,90,3.36,ES,1562504497,3120811.0
96,hobart,-88.40423101387135,140.95373206228624,40.19,93,0,5.82,AU,1562504232,2163355.0
97,san guillermo,16.65613149272737,121.81534782443913,77.54,86,95,5.61,PH,1562504498,1689852.0
98,plettenberg bay,-41.49132341876674,24.082684145699915,58.46,67,49,14.12,ZA,1562504498,964712.0
99,fort saint john,54.842978612813425,-121.50714133070584,,,,,,,
100,narasannapeta,14.976062982477629,86.9710603958693,87.26,64,85,8.66,IN,1562504498,1261853.0
101,walvis bay,-24.517157919961406,9.928292699452328,61.34,50,0,8.05,NA,1562504499,3359638.0
102,sidney,47.511111363058745,-103.81716151549641,57.83,87,40,9.17,US,1562504499,5699552.0
103,hithadhoo,-1.321374831098538,77.43960388527745,84.92,70,35,10.2,MV,1562505019,1282256.0
104,anar darreh,32.09928333247676,60.92137008959051,,,,,,,
105,newport,44.74948245017234,-126.83379893079646,69.93,72,40,12.75,US,1562504456,5223593.0
106,hofn,68.44891454455811,-11.042679114717487,60.8,36,75,10.29,IS,1562504499,2630299.0
107,sabinas,27.769494439621738,-100.99723879234348,77.0,76,100,8.95,MX,1562504500,3988333.0
108,ancud,-39.53131647702483,-88.2753872256834,46.4,100,90,3.36,CL,1562504500,3899695.0
109,chipata,-13.533074724345354,32.14750034675396,85.82,20,0,4.41,ZM,1562504500,918702.0
110,sao joao da barra,-31.833148360394944,-27.71005467171662,67.24,68,0,5.82,BR,1562505020,3448903.0
111,barrow,89.48271422168054,-159.63464855348792,39.38,78,44,10.69,AR,1562505020,3833859.0
112,berlevag,72.9825219928154,29.96952947382863,44.42,89,16,21.18,NO,1562504500,780687.0
113,baragua,21.145481284484745,-78.79054907273698,77.18,89,0,4.5,CU,1562504501,3567823.0
114,huejuquilla el alto,22.131117197870722,-104.27320217915667,65.3,66,91,2.13,MX,1562504501,4004616.0
115,litovko,50.020444630793435,135.46941927882352,70.52,94,23,3.87,RU,1562504425,2020738.0
116,mullaitivu,10.271489759364272,81.97928813544826,,,,,,,
117,belushya guba,89.25487537978762,56.11324112181725,,,,,,,
118,charters towers,-21.34789693041286,144.3365959164276,64.4,95,74,9.06,AU,1562505021,2171722.0
119,camocim,-2.249109278620253,-41.10448107267564,81.14,68,37,7.54,BR,1562504501,3403687.0
120,thompson,74.52572356426691,-92.90638134986135,53.6,81,75,2.24,CA,1562505022,6165406.0
121,harper,0.9379534312923852,-7.270039738082687,74.01,88,75,9.91,US,1562505022,4696310.0
122,east london,-74.68147917924327,52.70304167023568,68.0,37,0,24.16,ZA,1562505022,1006984.0
123,luwuk,-2.2165097815398838,122.99149810494407,58.46,81,44,4.74,ID,1562504502,1637001.0
124,zhigansk,69.45944111893789,121.6850496845675,59.9,59,99,4.07,RU,1562505023,2012530.0
125,deputatskiy,76.21449161475599,142.8462307475652,56.66,61,39,9.62,RU,1562504502,2028164.0
126,bairiki,1.4370967347885824,169.85885245539333,,,,,,,
127,attawapiskat,56.75165211189895,-81.17199012817568,,,,,,,
128,san patricio,13.942011125774513,-112.12155242995242,38.84,74,0,5.48,PY,1562504503,3437029.0
129,preobrazheniye,41.376132640553635,135.7749289560386,55.94,95,0,0.67,RU,1562504503,2017658.0
130,roebourne,-21.45016639434651,117.80093553487438,68.54,57,0,4.54,AU,1562504504,2062276.0
131,new norfolk,-80.01789890398348,123.72962815335097,39.99,93,0,5.82,AU,1562504489,2155415.0
132,nikolskoye,44.53260212761617,171.75127782783795,63.41,55,75,6.71,RU,1562504504,546105.0
133,meyungs,10.297459923200933,133.73002738260533,,,,,,,
134,the valley,20.331679233069366,-61.51989033093788,82.98,69,20,11.41,AI,1562504504,3573374.0
135,geresk,31.714497864987905,64.68797528377343,,,,,,,
136,sentyabrskiy,39.44534527198735,150.27446336696113,,,,,,,
137,lebu,-38.19823571446295,-75.51173449212608,67.82,64,73,4.52,ET,1562505024,344979.0
138,palimbang,5.442101829835508,123.70401577185243,83.84,79,20,4.7,PH,1562504505,1690039.0
139,severo-kurilsk,35.98173839949726,165.30606191225644,44.24,92,100,1.72,RU,1562504505,2121385.0
140,lossiemouth,57.77954670184957,-3.2093184038424454,57.97,58,40,9.17,GB,1562504505,2643587.0
141,ponta do sol,24.065834274381146,-25.593778199213745,51.08,60,0,4.45,BR,1562504505,3453439.0
142,te anau,-44.458121865679054,163.08162644147842,39.38,74,13,8.46,NZ,1562505025,2181625.0
143,farafangana,-24.005150355980888,50.42860085170909,76.64,73,12,7.25,MG,1562504506,1065158.0
144,gazli,41.40463928178795,63.14407520018645,105.08,9,0,20.47,UZ,1562504506,1513990.0
145,la seyne-sur-mer,41.331588462900044,5.930233686094027,91.06,70,0,19.46,FR,1562504506,3006414.0
146,sabang,6.39743887306949,95.6419530741008,75.2,93,52,1.01,PH,1562504507,1726279.0
147,amderma,69.48126299958545,58.432691959744716,,,,,,,
148,glenwood springs,39.49990685601608,-106.54709052312168,51.35,58,1,5.82,US,1562504507,5423092.0
149,matara,-3.767464998147588,83.03354462796881,60.98,75,100,5.79,BI,1562504507,425378.0
150,isangel,-19.85895845687247,172.4977084509377,68.0,94,20,23.13,VU,1562504508,2136825.0
151,buka,40.96718468904561,69.12972338375795,98.6,18,0,6.93,UZ,1562504508,1514330.0
152,sangar,65.18431217609663,128.74010048065674,61.52,71,100,3.98,RU,1562504508,2017215.0
153,guerrero negro,27.16922967009694,-114.12889243852712,63.5,92,0,12.77,MX,1562504508,4021858.0
154,chase,51.411875329175984,-119.75100464598844,70.81,94,1,4.7,US,1562504508,4274927.0
155,yar-sale,72.05801971465738,72.94578034253732,63.68,43,98,18.45,RU,1562504509,1486321.0
156,esperance,-32.84877244068075,120.9894008549515,53.6,76,10,8.05,AU,1562504509,2071860.0
157,avera,-24.07889071411877,-151.8885908777957,77.74,94,90,6.93,US,1562505027,4231997.0
158,bud,74.53643546430874,1.8290924067227081,55.45,71,75,9.17,NO,1562504509,7626370.0
159,neyshabur,35.14008564272683,58.25328221535051,90.86,14,0,15.99,IR,1562504509,122285.0
160,clyde river,70.46535929143238,-84.28679565311461,37.4,100,75,11.41,CA,1562505027,5924351.0
161,medicine hat,50.205252570178914,-110.8740577098177,53.94,93,1,4.7,CA,1562504510,6071618.0
162,effium,6.64168199924876,8.103530395767962,82.4,80,100,5.53,NG,1562504510,2343985.0
163,saldanha,-43.548079312938896,-5.174566874307487,80.24,32,31,5.12,PT,1562504510,2737599.0
164,kruisfontein,-46.46369591592118,25.75543524455594,56.84,70,84,23.87,ZA,1562504510,986717.0
165,cheltenham,51.826530165945144,-1.8251889301553206,68.22,52,75,4.5,GB,1562504511,2653261.0
166,kahului,31.362732494205133,-148.59215097025083,71.65,100,75,9.17,US,1562504797,5847411.0
167,otavi,-19.176897440522623,16.62408615882947,80.96,5,0,5.28,NA,1562504511,3353934.0
168,scottsbluff,41.145426720630695,-103.97193490550904,56.39,93,75,10.29,US,1562504437,5699404.0
169,norman wells,68.7012555455832,-126.59541655110147,50.0,66,75,14.99,CA,1562505028,6089245.0
170,luderitz,-30.086960943832082,11.778435780823116,68.0,56,0,17.22,NA,1562504977,3355672.0
171,gupitan,7.815983205391035,125.58565480743351,81.0,77,47,1.66,PH,1562504511,1712107.0
172,saskylakh,82.47383668733468,115.14694788203485,50.18,79,85,5.12,RU,1562504512,2017155.0
173,fare,-12.04546878190311,-147.8369036698523,77.36,87,39,21.14,PF,1562504512,4034496.0
174,aksu,40.98382710115044,80.37590952597316,78.8,31,0,8.95,KZ,1562504512,1524298.0
175,olafsvik,61.84573709638806,-25.444201274027733,,,,,,,
176,sharan,32.14205163809234,68.16137183938699,87.98,7,0,5.84,AF,1562504512,1120879.0
177,shirokiy,49.592480332698045,129.52852303930007,68.0,37,54,4,RU,1562504513,512255.0
178,hasaki,26.961400019984666,160.4068171557858,65.25,94,75,18.34,JP,1562504513,2112802.0
179,bambari,5.668222854580051,21.14221191443167,78.44,89,48,8.55,CF,1562504513,240604.0
180,barentsburg,85.93380183291427,5.62541255855831,,,,,,,
181,quatre cocos,-18.51724038160647,64.55848846869145,76.51,69,20,12.75,MU,1562504513,1106643.0
182,jahrom,28.172704213270052,53.41273357159815,,,,,,,
183,port hedland,-20.873420551323093,121.45526065454095,68.0,60,0,3.36,AU,1562504514,2063042.0
184,ribeira grande,40.82330899491748,-39.891145054459855,71.6,94,75,9.17,PT,1562505030,3372707.0
185,prince rupert,51.07090195213297,-133.01775711542112,53.6,100,90,2.24,CA,1562504514,6113406.0
186,den helder,54.69187581921392,3.1573330046298906,62.1,59,75,13.87,NL,1562504514,2757220.0
187,seidu,8.884388998299215,-10.739361966058652,82.58,73,98,7.05,NG,1562504514,2342616.0
188,akdepe,42.04461131735735,58.77380277602225,98.31,26,0,20.8,TM,1562504515,601551.0
189,nabire,-3.6461728648587126,133.76551128024852,70.34,97,80,2.59,ID,1562504515,1634614.0
190,castro,-49.290475738618525,-102.98751602434592,46.4,100,90,3.36,CL,1562505031,3896218.0
191,sitka,45.81541714444293,-139.96438243981592,68.0,97,59,3,US,1562505031,4267710.0
192,havoysund,76.56369314317621,22.62005409038295,64.4,48,0,21.92,NO,1562504515,779622.0
193,sao filipe,12.028792065383556,-34.3485093147556,73.22,80,25,22.32,CV,1562504432,3374210.0
194,dingle,52.682191841448656,-14.666355904205915,77.0,90,22,4.56,PH,1562504516,1714733.0
195,abramovka,51.10768048921969,41.06653989447523,89.6,33,40,11.41,GE,1562504516,612287.0
196,pevek,82.49220133529866,165.73181362629657,46.4,70,60,20.71,RU,1562505032,2122090.0
197,georgetown,0.5812842671238343,-21.01834397826758,81.27,79,40,9.17,GY,1562504516,3378644.0
198,alice springs,-19.43925546139039,132.09975370712004,55.4,54,0,3.36,AU,1562504923,2077895.0
199,gisborne,-38.68792398531425,178.31814724980927,43.0,77,0,1.99,NZ,1562504431,2206854.0
200,san cristobal,0.3681621601789402,-88.7233933195627,66.2,93,66,1.7,HN,1562504517,3609418.0
201,rivadavia,-33.21783908837263,-68.48937569553829,39.02,48,53,2.57,AR,1562504517,3837213.0
202,grand gaube,-13.830072552553602,64.10804747813322,76.59,69,20,12.75,MU,1562504517,934479.0
203,marawi,20.180373017494404,29.451472074110143,77.0,92,85,4,PH,1562504517,1701054.0
204,avarua,-44.50323384627748,-160.15025077794232,71.6,64,24,6.93,CK,1562504364,4035715.0
205,tutoia,1.0428611416053144,-41.41786709070382,80.6,76,23,6.89,BR,1562504518,3385899.0
206,skagastrond,67.47814045142596,-21.145420458667473,,,,,,,
207,vostok,50.39436299848384,151.9687623110584,66.02,92,0,1.52,RU,1562505033,2013279.0
208,praya,-9.805762798524754,116.6307512128605,73.4,83,40,11.41,ID,1562504518,1630662.0
209,hobyo,1.6871641591399396,50.79155649074059,87.62,54,92,27.34,SO,1562504518,57000.0
210,ardabil,38.121531618884006,47.935600400547315,71.6,49,20,24.16,IR,1562504493,143083.0
211,kurumkan,54.68062446118955,110.97863049025563,60.62,66,81,3.65,RU,1562504519,2021188.0
212,stornoway,58.67097061424727,-6.010609449571945,,,,,,,
213,fort frances,48.70211160575096,-93.71416133432852,51.19,100,90,1.99,CA,1562504519,5955826.0
214,taolanaro,-67.95730027985344,62.111243007208344,,,,,,,
215,bengkulu,-10.220755398521845,94.86489906388817,,,,,,,
216,vardo,89.65757698051573,38.2563009585956,74.86,88,75,5.82,US,1562504767,4372777.0
217,northam,-27.457949915283372,120.75666834475305,51.8,81,0,4.7,AU,1562504520,2064550.0
218,banjar,-17.915836618798537,105.1387917564225,73.04,89,61,3.13,ID,1562504521,1650233.0
219,ornskoldsvik,64.53235718299766,18.073966002554613,61.61,48,84,5.82,SE,1562504521,2686469.0
220,kamaishi,38.741868588241346,142.6498445149926,52.7,95,54,4.32,JP,1562504521,2112444.0
221,saint-augustin,58.52515527233214,-58.881426350992285,65.05,59,20,8.05,CA,1562505035,6138501.0
222,bontang,1.1995953562265385,117.82325690104233,76.64,88,10,3.58,ID,1562504522,1648186.0
223,burla,53.25148226411861,78.15199832181833,75.02,41,0,13.51,RU,1562504522,1508636.0
224,macaboboni,16.780391871004923,117.5448987257958,,,,,,,
225,quixada,-4.9797597947979,-39.02721877638879,,,,,,,
226,lompoc,27.93926230670462,-123.81780177324791,55.63,100,49,5.97,US,1562504522,5367788.0
227,port lincoln,-47.20520995789483,129.46541504953848,59.18,71,13,17.65,AU,1562505036,2063036.0
228,ahipara,-36.4245836139944,171.34746929684263,58.46,74,96,17.69,NZ,1562504523,2194098.0
229,satuk,15.19869028513294,103.17572148932874,82.11,42,20,13.87,TR,1562504523,737723.0
230,eureka,41.74477751305125,-127.897739708208,55.53,93,90,4.7,US,1562504363,5563397.0
231,rio do sul,-27.2521685761185,-49.80582897957541,47.1,1,2,1.45,BR,1562504411,3451152.0
232,ploufragan,48.400170406331114,-2.842682148471823,69.98,60,20,6.93,FR,1562504523,2986678.0
233,maldonado,-35.99376147816615,-53.822919532695664,35.6,66,20,11.86,UY,1562504426,3441894.0
234,kirakira,-13.099095171467823,162.66411052678245,78.44,87,37,9.84,SB,1562504524,2178753.0
235,bonavista,53.714298419152044,-48.912371944941725,55.94,96,99,13.47,CA,1562504524,5905393.0
236,lolua,-5.955902832417806,173.45294293461512,,,,,,,
237,saurimo,-10.327662248902072,18.905652097050393,86.0,16,0,6.93,AO,1562504524,145531.0
238,robertsport,4.971972128592682,-13.103448956785854,78.08,85,83,9.53,LR,1562504524,2274275.0
239,upington,-28.77891501041428,22.126100866537115,64.4,45,0,4.7,ZA,1562504525,945945.0
240,launceston,-40.76263939923261,151.15557747180583,38.93,93,40,4.7,AU,1562504420,2160517.0
241,mys shmidta,83.86466593514703,-175.54052359733708,,,,,,,
242,fort nelson,59.11673649838002,-121.77496571184113,55.4,93,90,4.7,CA,1562505038,5955902.0
243,moose factory,53.13532171052239,-77.98866763454853,59.0,67,1,8.05,CA,1562504525,6078372.0
244,carballo,45.30390247602955,-10.638688690797864,66.87,77,75,10.29,ES,1562504506,3126369.0
245,cosala,25.04088824238046,-106.51831034122173,,,,,,,
246,klaksvik,76.21357339757517,-7.228108346334523,53.6,71,23,12.75,FO,1562504525,2618795.0
247,shache,37.48873704432302,77.38228299577702,89.06,19,63,22.15,CN,1562504526,1280037.0
248,kodiak,43.48231585472868,-150.00801761500352,72.64,78,1,5.53,US,1562505039,4407665.0
249,lorengau,1.482736991028787,145.52833163478573,76.46,88,97,8.01,PG,1562505039,2092164.0
250,namikupa,-11.142373532747627,39.67738461312899,88.16,39,41,2.42,MZ,1562504526,877631.0
251,korla,40.086124608905294,87.61475641281572,,,,,,,
252,tucumcari,35.059964232124045,-103.6398992195704,65.07,82,1,4.7,US,1562504526,5495360.0
253,iqaluit,63.65836837074241,-73.74857849938309,51.4,81,75,8.05,CA,1562504428,5983720.0
254,burica,7.469265171525166,-83.96165904140142,,,,,,,
255,jacareacanga,-5.591668494457181,-56.70444645237016,73.22,89,89,4.43,BR,1562504527,3397763.0
256,wadi musa,30.232609128186326,35.4837162715946,98.6,15,0,12.86,JO,1562504527,246008.0
257,verkhnevilyuysk,61.83722772078349,120.75050043440825,63.86,78,89,3.83,RU,1562504527,2013639.0
258,peace river,56.967164215179025,-117.23420424110523,56.17,82,75,6.93,CA,1562504241,6100069.0
259,codajas,-2.7195336049665997,-62.21337370941063,72.86,96,100,3.76,BR,1562504528,3664525.0
260,tigre,10.040225195941517,-78.08702770925642,42.22,93,0,6.2,AR,1562504528,3427761.0
261,dikson,85.04593651155784,90.89583182495159,35.96,88,0,15.14,RU,1562505041,1507390.0
262,kununurra,-15.713083467568254,130.34358616426238,60.8,51,59,6.04,AU,1562504458,2068110.0
263,temuco,-38.759448786449845,-72.59879707662405,53.8,81,90,14.99,CL,1562504529,3870011.0
264,yola,9.006966867148705,12.377182704658196,93.02,52,86,8.32,NG,1562504529,2318044.0
265,san luis,28.890863184962882,-114.14024546907318,44.06,69,100,2.62,AR,1562504529,3837056.0
266,maloshuyka,64.71946684401888,37.40108576202056,,,,,,,
267,nguiu,-11.010724021628732,132.0130218164216,,,,,,,
268,ouahigouya,13.810048315554425,-2.761688152046162,97.7,31,56,6.02,BF,1562504530,2357043.0
269,poyarkovo,49.29491622716196,128.56308282810932,70.7,81,69,4.9,RU,1562504530,2017705.0
270,mount gambier,-47.15404694144741,134.35307067299982,48.2,100,75,6.93,AU,1562505044,2156643.0
271,upernavik,68.99329771631432,-57.87201601032474,43.34,73,25,4.79,GL,1562505045,3418910.0
272,talas,43.081059623106285,72.43345068391386,70.0,78,9,5.57,KG,1562504530,1527299.0
273,shimoni,-4.560583917282344,39.24678602019398,86.36,46,86,16.08,KE,1562504530,180389.0
274,kijang,0.4118394961294598,103.97477913874951,73.4,60,75,16.11,KR,1562504531,1842966.0
275,markova,58.716231989285546,106.35891488081597,66.13,53,20,2.24,RU,1562504531,2023469.0
276,cacequi,-29.84294135480622,-54.675558617674554,39.2,78,0,2.37,BR,1562504531,3468553.0
277,boende,-0.7270204387402686,21.264876672825324,83.66,67,99,5.26,CD,1562504531,218680.0
278,ariquemes,-9.656955486540497,-62.91663831633642,63.14,56,73,6.58,BR,1562504532,3665199.0
279,victoria,-7.483358103523074,64.0352770521524,83.14,79,75,7.61,BN,1562504803,1733782.0
280,moranbah,-22.568368296530892,147.26458288260125,64.22,83,100,14.43,AU,1562505047,6533368.0
281,chato,-2.6293543016787453,31.619975031092565,81.86,36,68,9.44,TZ,1562504532,160552.0
282,azanka,58.069928723992746,64.64139360296008,72.32,43,47,10.94,RU,1562504532,1511146.0
283,arraial do cabo,-31.361052617858547,-29.05294229990068,62.6,77,75,11.41,BR,1562505047,3471451.0
284,kathu,8.041128293480384,96.84346887472816,66.0,40,0,1.01,ZA,1562504527,991664.0
285,codrington,22.180022086451856,-60.09723312752563,58.39,93,90,3.38,AU,1562504533,2160063.0
286,hatillo,22.005140623556414,-66.49813992962656,80.62,74,1,12.75,PR,1562504255,4565346.0
287,novikovo,45.929077167455546,145.13972015426816,71.24,63,62,15.12,RU,1562504533,487928.0
288,shahr-e babak,29.940117315075213,54.06727073555439,101.12,5,28,15.77,IR,1562504533,115781.0
289,pisco,-25.050468891765192,-99.59696291548478,66.88,30,90,3.36,PE,1562504534,3932145.0
290,vanavara,61.369424161150135,100.77845405495356,69.8,76,75,3.33,RU,1562505048,2013727.0
291,basoko,0.39296207603682376,23.44984257167485,73.76,86,100,1.21,CD,1562504534,219414.0
292,jiquipilas,16.646475291700497,-93.54785425078349,69.8,88,40,3.36,MX,1562504534,3526488.0
293,bilma,16.71309573150822,14.26490004257164,103.1,11,0,6.4,NE,1562504534,2446796.0
294,yueyang,29.09211905213266,113.34388572908534,75.74,86,100,6.96,CN,1562504535,1927639.0
295,ucluelet,47.86631285544104,-126.63867588470842,57.99,96,90,4.61,CA,1562505049,6171633.0
296,gilgit,35.47471890665783,73.66035168304285,65.12,27,53,2.15,PK,1562504535,1178338.0
297,zhifang,30.42484364628706,114.2697460210751,86.0,55,0,8.95,CN,1562504535,1784543.0
298,nishihara,19.348311732847108,134.93600831879678,65.46,88,90,10.29,JP,1562504535,1850144.0
299,namibe,-18.745157148712337,3.9667717070611843,73.4,73,20,11.41,AO,1562505050,3347019.0
300,tabiauea,1.08666937881695,173.06280362187346,,,,,,,
301,tiksi,77.50640144007352,124.97518637421547,41.0,77,4,5.57,RU,1562504536,2015306.0
302,portland,-44.84726844329921,137.78472353108452,65.41,52,1,12.75,US,1562504500,4975802.0
303,ostrovnoy,68.56729487059914,38.82577175433448,46.94,74,0,21.92,RU,1562505050,556268.0
304,ribnica,45.66959135988975,14.61497297464058,76.23,65,40,3.36,SI,1562504536,3191685.0
305,soeng sang,14.201747672839886,102.47599683543172,84.58,67,100,4.47,TH,1562504536,1606213.0
306,namatanai,0.39274802000178965,155.11802402167854,79.52,82,100,14.25,PG,1562505051,2090021.0
307,aboisso,5.402585555456341,-2.848597157959915,80.78,80,100,6.55,CI,1562504537,2293507.0
308,narsaq,81.89835299576009,-64.19815907287142,62.6,21,75,27.51,GL,1562505051,3421719.0
309,klerksdorp,-26.651136272900104,26.267885986691113,66.74,20,0,12.71,ZA,1562504537,989921.0
310,ghanzi,-21.434093010450738,21.190277282777657,79.34,6,0,5.23,BW,1562504537,933644.0
311,ostrovskoye,58.071069372690914,42.407910482159,63.68,55,100,8.03,RU,1562504537,514052.0
312,santiago,-15.482022088897537,-77.368123200584,75.74,91,93,1.54,PH,1562504409,1687801.0
313,shitkino,57.00968578458301,98.64476841676094,76.46,53,22,2.51,RU,1562504538,1492110.0
314,ixtapa,1.3823695642531817,-109.03286093131786,79.81,78,75,2.24,MX,1562504538,4004293.0
315,hope,33.64882724706521,-93.60156103097465,77.86,88,1,1.39,US,1562504538,4115181.0
316,alekseyevsk,57.520057696589305,109.52054506595636,71.06,53,99,5.28,RU,1562504538,2022083.0
317,deer lake,50.09671387780037,-57.35614530054653,60.3,72,75,12.75,CA,1562504539,5937252.0
318,saint george,29.471967777875548,-46.81824932745931,96.6,26,20,11.41,GR,1562505052,262462.0
319,incourt,50.712823785142774,4.790728028919688,68.25,48,34,4.7,BE,1562504539,2795064.0
320,palabuhanratu,-18.287463567821163,98.03702432026967,,,,,,,
321,carnarvon,-21.05514063062158,108.24577937103669,58.82,40,29,19.35,ZA,1562504539,1014034.0
322,blackpool,53.92749306210328,-3.506996364704918,61.72,88,75,3.36,IE,1562504539,2965139.0
323,umzimvubu,-38.17546108547335,35.95191759331709,,,,,,,
324,poum,-16.599750910697693,163.00020730075312,78.62,37,0,5.08,MK,1562504540,787487.0
325,hvolsvollur,63.72297595741074,-19.488435326845718,,,,,,,
326,ksenyevka,53.39791915870114,118.77586573189598,,,,,,,
327,kutum,15.251600185594015,23.35172101130243,93.56,18,23,5.86,SD,1562504540,371745.0
328,provideniya,55.25175765282495,-170.17951125345382,59.18,62,7,0.22,RU,1562504541,4031574.0
329,buraydah,24.909165647517042,42.91896747648667,113.0,13,20,5.82,SA,1562504541,107304.0
330,leningradskiy,71.11053871510205,178.17400456552895,57.92,61,0,11.79,RU,1562505054,2123814.0
331,ocean city,38.70187026021125,-74.42868788654583,82.29,88,1,5.41,US,1562504541,4166723.0
332,atambua,-7.10047959964713,124.6842880125298,76.46,66,26,16.44,ID,1562505054,1651103.0
333,petropavlovsk-kamchatskiy,50.853885300492834,163.11767094140413,50.0,100,90,4.47,RU,1562505054,2122104.0
334,bethlehem,-28.072739449029143,28.48374601555409,74.34,83,75,10.29,US,1562504263,5180225.0
335,saquarema,-25.85394814663144,-42.806351843339,65.14,77,75,11.41,BR,1562504542,3448011.0
336,bandarbeyla,6.307327727672913,58.5847362827532,99.86,27,30,28.9,SO,1562505055,64814.0
337,ilulissat,76.02265731141165,-46.64032746591221,51.8,53,20,4.7,GL,1562505055,3423146.0
338,zhanakorgan,44.900755284855165,67.65061695839063,100.4,13,7,17.56,KZ,1562504542,1517323.0
339,pontes e lacerda,-14.760735673433771,-60.88663528079097,57.02,33,0,6.06,BR,1562504542,3453060.0
340,port macquarie,-32.19497688120578,153.93547003684716,51.96,100,90,1.12,AU,1562504542,2152659.0
341,igreja nova,-10.19038170312372,-36.645375162873876,80.78,62,0,8.57,BR,1562504543,3461484.0
342,itirapina,-22.145697134958837,-47.81410564406764,44.6,87,0,8.05,BR,1562504543,3460553.0
343,faanui,-10.067617954209666,-155.17554505055085,78.8,82,4,18.66,PF,1562505057,4034551.0
344,coihaique,-45.14839819369309,-71.20556924694084,30.2,100,100,1.48,CL,1562504543,3894426.0
345,lumphat,13.511940550079188,106.04396283009686,77.36,94,68,3.36,KH,1562504543,1830377.0
346,dabra,25.89742131225438,78.27766146541768,93.2,63,75,5.82,IN,1562504544,1273751.0
347,talnakh,78.9698834026376,89.211627642265,59.0,58,20,31.32,RU,1562504544,1490256.0
348,oksfjord,72.51102880840622,22.364641394949416,65.03,48,0,21.92,NO,1562504544,778362.0
349,placido de castro,-11.070412431901104,-67.63338491018072,60.26,57,97,6.26,BR,1562504544,3924895.0
350,manta,-0.6101697917048909,-84.68436215568923,82.94,46,28,7.47,RO,1562504544,685981.0
351,richards bay,-32.10815948549553,39.1892110607497,70.88,69,33,19.1,ZA,1562504545,962367.0
352,helong,42.144884725788785,128.97447293507173,76.1,93,100,1.95,CN,1562504545,1808534.0
353,gurgan,38.99347706487367,51.025675559245514,,,,,,,
354,kavieng,9.448068963133323,153.21196879037416,83.84,73,75,9.17,PG,1562505060,2094342.0
355,muisne,0.8996011799986974,-81.70487916395932,77.0,94,75,9.17,EC,1562504545,3653967.0
356,salinopolis,3.8169904020989662,-46.350629779671436,81.14,79,53,13.24,BR,1562504286,3389822.0
357,san matias,-15.607417902740579,-58.47412713779252,54.14,39,0,7.63,BO,1562504546,3444105.0
358,adrar,27.062888629743725,-3.9212303913944027,116.6,4,0,25.28,DZ,1562504413,2508813.0
359,usogorsk,64.12478721074507,48.531278186118186,62.42,75,100,3.78,RU,1562504546,478297.0
360,bethel,52.38176944602634,-165.8738546909496,68.81,45,1,8.05,US,1562504546,5880568.0
361,dalnegorsk,44.72524902220388,135.83473232257762,56.48,95,0,0.16,RU,1562504546,2051471.0
362,kieta,-1.4755401226555591,157.1705802645534,81.14,81,100,7.96,PG,1562504547,2094027.0
363,henties bay,-22.418130352598993,9.12320958797892,55.0,89,0,4,NA,1562504547,3356832.0
364,ratnagiri,15.958075772477102,68.99573346032139,82.76,83,100,22.44,IN,1562504547,1258338.0
365,krasnyy yar,53.49454216236285,50.617263871892334,72.68,44,34,14.34,RU,1562504547,541344.0
366,steamboat springs,40.73595085940289,-106.38650903075622,45.82,87,1,3.36,US,1562504547,5582371.0
367,krasnoselkup,62.719417090672124,81.43755006627089,,,,,,,
368,tukrah,34.33246123290013,20.756629168458062,,,,,,,
369,cabedelo,-5.003269503517487,-30.24275444738049,80.6,78,40,4.7,BR,1562504548,3404558.0
370,tautira,-19.218921129287722,-142.59316917860588,77.0,83,40,2.24,PF,1562504548,4033557.0
371,issoire,45.12816989603908,3.0053743764365493,82.4,42,0,10.29,FR,1562504548,3012664.0
372,xalpatlahuac,17.341337649313346,-98.8395966845253,59.36,91,68,3.02,MX,1562504352,3514592.0
373,kokuy,52.11986643890435,117.36384920927054,60.26,83,57,2.24,RU,1562504549,2021908.0
374,buta,2.369064913612121,24.553166578811272,84.2,56,83,4.32,CD,1562504549,217570.0
375,kangaatsiaq,69.20896105818932,-56.907855285720075,46.76,65,23,8.25,GL,1562504549,3422683.0
376,aklavik,83.0303446707403,-143.36619178662144,44.6,81,75,5.82,CA,1562505063,5882953.0
377,venice,26.3848224979981,-83.70037451272472,77.92,100,20,6.93,US,1562504549,4176380.0
378,vaitupu,2.277575488690175,-173.86621197427624,,,,,,,
379,holme,59.188714880498935,2.2388442417702095,61.09,67,76,14.99,DK,1562504550,2624652.0
380,rapid valley,42.70235651710345,-102.20865495040084,62.04,100,90,5.82,US,1562504550,5768244.0
381,lavrentiya,77.27207084331641,-169.5428932092828,58.64,50,15,1.66,RU,1562505063,4031637.0
382,druzhba,51.44074189578413,28.081330571271195,84.99,46,93,4,UA,1562504550,691693.0
383,abalak,15.920174629716712,6.6114999017574405,101.3,19,22,7.54,NE,1562504550,2448245.0
384,la ronge,65.35831794736052,-104.23682079757253,55.4,87,75,2.3,CA,1562504551,6050066.0
385,buqayq,25.585258414858956,49.74689660112125,,,,,,,
386,contamana,-6.668717274193185,-74.59605726091453,65.48,93,100,1.72,PE,1562504551,3697838.0
387,hualmay,-17.22067906899602,-87.7930582272334,62.6,88,100,12.28,PE,1562504551,3939761.0
388,awjilah,27.009932160713646,19.244125712423397,98.42,15,0,11.7,LY,1562505064,88533.0
389,yenangyaung,20.341612441357412,94.62247638454619,79.16,84,100,7.31,MM,1562504551,1285173.0
390,arman,58.148272831993495,147.8943558687057,45.68,94,100,0.72,RU,1562504552,2127060.0
391,villazon,-23.028549458276075,-66.58051915396227,,,,,,,
392,kramat,-6.075515526412275,109.1832105276718,76.64,70,27,6.51,ID,1562504552,1640765.0
393,zernograd,47.002409951091266,40.44707954777479,85.28,27,4,9.28,RU,1562504552,463637.0
394,touros,-0.780504914649498,-32.86023999751163,80.6,83,40,3.36,BR,1562504552,3386213.0
395,kjollefjord,69.71835557288261,27.57466601879574,51.8,66,52,18.16,NO,1562504553,779261.0
396,shenjiamen,29.84266845228258,122.18455939562142,78.08,77,100,5.86,CN,1562504553,1795632.0
397,takaungu,-4.279278656063056,41.37060804098647,85.08,62,40,8.05,KE,1562504553,179634.0
398,midleton,51.899850181595525,-8.068577950533893,61.75,88,75,3.36,IE,1562504553,2962630.0
399,half moon bay,31.99448199070929,-135.45500168123405,54.27,87,90,4.7,US,1562504553,5354943.0
400,manzanillo,9.651750938567488,-108.80434880532471,77.0,83,75,6.93,MX,1562504426,3996663.0
401,pulaski,36.719819949430175,-80.91364372380124,73.24,83,1,3.36,US,1562504554,4780577.0
402,wanaka,-42.230892902681774,167.83251812932497,44.01,69,70,3,NZ,1562504554,2184707.0
403,minab,27.512351837355993,58.08074716803307,96.8,75,0,11.41,IR,1562504554,123941.0
404,nanhyanga,-10.839282083450897,39.53005217548338,88.16,39,41,2.42,TZ,1562504555,877588.0
405,buluang,13.156667246259445,118.60511814807194,84.2,74,20,34.45,PH,1562504555,1717512.0
406,peniche,40.68282425109848,-10.649421502215745,71.85,53,20,10.29,PT,1562504487,2264923.0
407,tadine,-23.79081931478244,173.21672035451007,69.62,74,83,24.11,NC,1562504555,2138285.0
408,mutoko,-16.72904413565452,32.71334443232399,80.42,14,0,5.39,ZW,1562504555,884927.0
409,santa marta,14.105242317356783,-74.95201640817936,84.2,74,20,30.76,CO,1562504555,3668605.0
410,chuy,-59.26561029409163,-26.311192041364905,39.2,81,1,6.11,UY,1562504556,3443061.0
411,geraldton,-30.46819216127733,102.00569879584287,55.4,87,40,2.24,CA,1562504556,5960603.0
412,leninogorsk,54.49706915370891,52.372478017866655,63.14,74,5,17.92,RU,1562504556,536162.0
413,evensk,62.073047134872866,158.5534005846693,51.8,86,100,5.91,RU,1562504556,2125693.0
414,pedernales,17.44719955071966,-72.00536295730674,74.48,89,100,18.12,EC,1562504557,3653307.0
415,chicama,-10.777372322643728,-85.51667849906234,62.6,93,75,6.93,PE,1562504441,3698359.0
416,rocha,-46.13063728417262,-44.313778901964014,37.76,67,0,3.87,UY,1562504557,3440777.0
417,labuhan,-8.444477805386285,103.9838365702625,76.46,76,8,2.44,ID,1562504557,1641899.0
418,broken hill,-26.507564904605502,142.5225315979747,57.2,82,40,3.36,AU,1562504557,2173911.0
419,ozgon,41.3477217937463,73.57608388753312,,,,,,,
420,rungata,1.689689027497451,177.21933990693879,,,,,,,
421,tocopilla,-21.606469085990867,-69.48142654804292,58.64,88,64,11.18,CL,1562504558,3869716.0
422,coquimbo,-28.942951752758702,-87.12780244300424,52.74,87,90,5.82,CL,1562504559,3893629.0
423,gasa,29.349665556350118,89.64547212710147,44.78,92,100,9.69,BT,1562504559,1252578.0
424,soyo,-7.5909401029076236,7.230081219743454,80.6,65,75,10.29,AO,1562504560,2236967.0
425,banmo,24.256351340581276,96.80000328256062,,,,,,,
426,kushima,29.334324921546298,131.96230180583035,74.41,88,75,5.82,JP,1562504560,1895695.0
427,bosobolo,4.288028515634267,19.44872973587215,72.86,94,100,7.29,CD,1562504560,2316473.0
428,chilca,-13.410659538115283,-77.66994888245148,41.0,75,75,3.36,PE,1562504560,3934055.0
429,bathsheba,20.99528094956385,-43.4419673542034,82.4,78,75,18.34,BB,1562504560,3374083.0
430,kambove,-10.439399870534487,25.89162264072354,83.12,20,33,2.51,CD,1562504561,923058.0
431,thinadhoo,0.8749013361271523,70.30385368654163,85.28,66,71,7.7,MV,1562504561,1337610.0
432,yerbogachen,61.455569637735636,105.51349075227932,70.52,62,94,6.04,RU,1562504561,2012956.0
433,kouango,5.125211701962584,19.962923715697798,73.76,94,100,8.39,CF,1562504561,2385535.0
434,sinnamary,14.318374081808344,-46.48327563597337,78.62,82,1,7.02,GF,1562504561,3380290.0
435,dickinson,47.105324045529045,-101.91176022999365,62.91,93,20,10.29,US,1562504496,5688789.0
436,uribia,12.86548067380167,-71.46296090505462,80.6,75,65,19.75,CO,1562504562,3666409.0
437,great yarmouth,53.75177579479174,2.6869823117865224,66.69,45,20,5.82,GB,1562504562,2647984.0
438,longlac,50.46530871867975,-85.59329083971441,,,,,,,
439,jasper,52.11296970580173,-119.04897377310772,76.55,94,1,3.98,US,1562504403,4069659.0
440,bambous virieux,-29.2978332844566,71.54694327494005,76.01,69,20,12.75,MU,1562505070,1106677.0
441,port-gentil,-4.874274987102538,1.6970837595277715,78.8,83,90,12.75,GA,1562505011,2396518.0
442,thomastown,52.435276393566824,-7.249719894246795,62.33,71,93,3.94,IE,1562504563,2961224.0
443,mukhen,47.83437299112006,136.99137560848908,70.34,94,4,3.6,RU,1562504563,2019718.0
444,ketchikan,51.13311549682507,-134.34277270196395,55.4,93,90,10.29,US,1562505071,5554428.0
445,kumluca,36.50293132617125,29.80099676858552,81.32,29,16,8.19,TR,1562504563,305681.0
446,grindavik,54.38052012620423,-26.482025656328574,56.48,76,20,8.05,IS,1562504563,3416888.0
447,vaitape,-18.108026214471934,-153.6011755405244,78.8,82,4,18.66,PF,1562504564,4033077.0
448,tilichiki,58.52205696741402,172.81360583825114,44.06,94,96,1.74,RU,1562504564,2120591.0
449,mantua,24.354741590825768,-85.54414866073995,89.37,46,20,12.75,IT,1562504564,3174050.0
450,neopolis,-10.334823830247672,-36.62737357998333,78.44,75,9,7.07,BR,1562504564,3456325.0
451,talakan,50.412807916694646,130.92399867209463,69.08,91,81,2.71,RU,1562504565,2015686.0
452,flinders,-35.067048238876964,131.19600767402852,53.56,93,33,3.36,AU,1562504565,6255012.0
453,bintulu,3.28304814974814,112.17757418670158,80.6,88,75,2.3,MY,1562504341,1737486.0
454,lokosovo,60.05950626206595,74.63803702768664,59.72,81,100,5.86,RU,1562504565,1500399.0
455,merauke,-10.756074713560963,140.30817835595383,78.8,82,1,22.86,ID,1562504565,2082539.0
456,karratha,-20.10084702758448,113.93685575956516,67.46,64,0,2.26,AU,1562504536,6620339.0
457,longyearbyen,87.69530624429035,27.08635756921558,51.8,76,75,5.82,NO,1562505072,2729907.0
458,kuytun,43.969795146523154,84.41227799237146,71.6,58,22,1.88,RU,1562504566,2021093.0
459,saleaula,-6.387281347107262,-169.94622690635288,,,,,,,
460,candolim,15.110882611609185,72.93330378574603,82.4,83,90,17.22,IN,1562504566,1274989.0
461,bosaso,11.061402272356673,47.75607101452161,95.0,63,0,11.41,SO,1562504504,64013.0
462,tidore,-0.34988485497191846,127.08763864422457,,,,,,,
463,sunrise manor,36.826416918699906,-115.0354412246558,75.78,27,1,5.19,US,1562504566,5513343.0
464,sechura,-7.086705693339525,-82.87632006719736,63.14,89,26,6.15,PE,1562504567,3691954.0
465,along,29.3931195889606,94.50794031570507,61.16,99,100,1.63,IN,1562504567,1278969.0
466,visnes,58.3389226374851,3.6902104027592486,55.81,67,75,17.22,NO,1562504567,3131500.0
467,bethanien,-26.817197024954538,16.980933505234958,71.06,12,0,4.97,NA,1562504567,3358416.0
468,riacho de santana,-13.7628458032313,-42.65174495609017,80.6,52,3,4.32,BR,1562504360,3451448.0
469,husavik,77.06194143039573,-8.627132961802687,61.93,68,23,7.34,CA,1562504567,5961417.0
470,minot,48.59656720602027,-100.86964821181425,61.79,82,75,6.93,US,1562504274,5690532.0
471,moindou,-23.667695290078427,164.3986273926472,60.8,87,0,4.7,NC,1562504568,2140466.0
472,west bay,19.251203648372964,-82.1296882220824,57.0,87,90,10.29,CA,1562504568,6173331.0
473,svolvaer,68.04409644271249,14.827261013969974,60.33,67,75,2.24,NO,1562504568,3135020.0
474,katobu,-5.96437433455695,123.98043453646045,70.52,87,47,4.45,ID,1562504568,1640972.0
475,san pedro de macoris,16.072031260842166,-69.41737110520538,80.37,100,75,4.7,DO,1562504569,3493032.0
476,bereda,13.905741547871955,50.827923676488126,71.47,77,75,10.29,ES,1562504569,3105522.0
477,urumqi,43.782678607839586,90.47386983515088,,,,,,,
478,comodoro rivadavia,-47.28055286862151,-68.1810386300373,41.0,80,0,1.12,AR,1562505075,3860443.0
479,luganville,-14.493647396896634,163.47809625582488,78.8,83,75,9.17,VU,1562504569,2136150.0
480,hamilton,25.883783482042958,-66.19750420352123,68.76,77,75,13.87,CA,1562504570,5969785.0
481,chapais,56.83263967907959,-73.10255467127828,50.0,71,1,10.29,CA,1562504570,5919850.0
482,satitoa,-14.599146023405751,-165.82139670721335,,,,,,,
483,idaho falls,43.424698581295985,-112.18973101730957,55.63,81,1,9.17,US,1562504570,5596475.0
484,talcahuano,-36.39204223429043,-73.4075297239518,55.4,87,90,14.99,CL,1562504482,3870282.0
485,ngorongoro,-2.864510000549444,35.669057223668744,77.9,43,60,15.77,TZ,1562504570,151610.0
486,warqla,31.50574586815378,5.847903272250903,,,,,,,
487,constitucion,17.9736639943781,-122.80095994600595,63.0,70,87,5.82,MX,1562504571,4011743.0
488,axixa do tocantins,-4.747129391501218,-47.83193720458297,,,,,,,
489,pringsewu,-6.988182114698077,103.17396563755744,73.4,96,53,3.65,ID,1562504571,1630639.0
490,marcona,-16.98980355150475,-78.38184815259777,,,,,,,
491,porto velho,-9.147225232272518,-65.47117730787696,66.2,82,0,5.82,BR,1562505076,3662762.0
492,barcelos,-0.5351632931777601,-63.7851744761945,74.3,96,34,2.24,BR,1562504571,3665098.0
493,kenai,60.13631518298118,-151.3854539780551,52.57,93,20,3.36,US,1562505077,5866063.0
494,sisimiut,66.6879852093449,-55.147521705372114,45.86,66,94,9.98,GL,1562504572,3419842.0
495,marathon,48.86734772228647,-86.10383441968312,59.0,72,90,1.63,CA,1562504572,6065867.0
496,cape coast,3.0086085878956936,-0.4270078880617234,78.44,85,53,15.57,GH,1562504572,2302357.0
497,nikel,68.94355446897666,30.36478736920924,48.2,81,40,29.97,NO,1562504572,522260.0
498,aswan,22.882874773277237,30.808676062093298,105.8,9,0,11.41,EG,1562504573,359792.0
499,campo maior,-4.656939835451723,-42.328542235126605,79.7,69,35,5.23,BR,1562504573,3403566.0
500,beringovskiy,49.445528861802785,178.76097450112513,47.12,97,61,2.46,RU,1562504573,2126710.0
501,dudinka,68.32652265160058,84.73427962640312,59.0,58,20,31.32,RU,1562504573,1507116.0
502,toktogul,41.84047156958172,73.02785538078615,70.0,97,46,4.38,KG,1562504573,1538648.0
503,lindi,-9.529203947325925,39.47214386263548,85.64,42,56,6.53,TZ,1562504574,878281.0
504,huambo,-13.365758727856374,16.09993898908749,77.72,13,0,7.36,AO,1562504574,3348313.0
505,los llanos de aridane,24.653494751268894,-24.028563786487354,71.98,65,75,14.99,ES,1562505080,2514651.0
506,vila velha,-27.866179549132646,-25.22687052381059,80.96,65,75,12.75,BR,1562505080,6320062.0
507,morag,53.926375729763805,19.94847287557093,62.01,62,56,5.01,PL,1562504393,3091462.0
508,khandbari,28.188701590598555,87.30962240449816,63.86,91,99,1.54,NP,1562504574,1283217.0
509,hurghada,28.24309824239431,34.56199945733181,,,,,,,
510,shancheng,34.774484683708465,115.78500529213352,67.82,98,100,2.8,CN,1562504575,1796340.0
511,kem,65.0223108630608,34.69567649767447,79.52,65,83,3.06,UG,1562504575,235574.0
512,fort-shevchenko,43.58635152646144,49.21758203677018,77.18,77,0,9.64,KZ,1562504576,609906.0
513,malm,63.97557913786818,11.274160877268116,55.51,76,75,5.82,NO,1562504576,3146508.0
514,castrovillari,39.718932121301606,16.110045031950307,96.78,23,17,5.01,IT,1562504576,6540785.0
515,huarmey,-18.247711575546703,-93.60038540133117,63.32,88,100,12.66,PE,1562504576,3939168.0
516,honningsvag,70.72921302981243,26.021557945668548,49.28,75,24,20.38,NO,1562504576,779554.0
517,warrington,28.26920354386577,-86.89975854357426,66.0,42,20,8.05,GB,1562504577,2634739.0
518,whitehorse,60.07884435406018,-136.0285617769493,54.95,67,90,4.7,CA,1562504576,6180550.0
519,turtas,59.0997510113435,70.03150736560559,69.8,56,62,9.04,RU,1562505083,1540475.0
520,beitbridge,-21.389831602508494,30.18911940608072,83.84,8,0,17.74,ZA,1562504577,895269.0
521,grand river south east,-22.076194177470043,79.20119757026742,,,,,,,
522,kanashevo,55.14698141786681,62.0947108172885,72.39,49,40,4.47,RU,1562504577,1504716.0
523,cooma,-37.76344564361104,149.7398492196428,46.4,87,90,5.82,AU,1562504578,2170577.0
524,high rock,27.38256018033603,-77.65839041654037,84.2,79,40,8.05,BS,1562504578,3572189.0
525,formoso do araguaia,-11.626175583281963,-50.23894796275036,,,,,,,
526,pandan,15.274269255348116,124.8979285653574,83.48,75,42,7.7,PH,1562505084,1695555.0
527,nizhneyansk,85.75756859045643,140.27448082795263,,,,,,,
528,saint-francois,21.07505847329152,-50.838591536715256,86.0,40,0,9.17,FR,1562504578,2980080.0
529,longkou,38.384805498653265,119.54371773874601,74.66,73,12,17.56,CN,1562504578,1802550.0
530,san vicente,19.468215816996732,128.03690814268208,71.6,88,90,9.17,EC,1562504579,3660401.0
531,juneau,59.35477158591155,-134.7497628322663,57.36,87,40,12.77,US,1562505084,5554072.0
532,chatsu,26.647021213358457,75.74650053457864,,,,,,,
533,oppdal,62.28677415247239,9.48193846826922,51.8,63,89,5.32,NO,1562504579,3143513.0
534,agirish,63.82200887893225,62.33987518793927,48.74,95,100,9.4,RU,1562504579,1512101.0
535,sayyan,15.336941091415085,44.799277197051026,83.84,42,83,9.48,YE,1562504580,70979.0
536,jumla,34.968523472756445,83.63399983679426,64.94,79,74,5.86,NP,1562504580,1283285.0
537,san jose,12.795767724697,-91.39374516905671,71.6,94,75,9.17,HN,1562504419,3602137.0
538,cache creek,51.06767903450995,-121.04199043746584,53.74,100,90,2.24,CA,1562504580,5913049.0
539,busca,44.494079662064934,7.052956171395863,88.14,43,0,5.82,IT,1562504580,3181380.0
540,kattivakkam,13.21275063940594,81.9189047468123,92.21,47,40,11.41,IN,1562504581,1267433.0
541,yaguajay,22.59346979643317,-79.0459557657118,78.62,86,0,5.03,CU,1562504581,3533826.0
542,vilcun,-38.806526217545944,-70.65324999628399,53.78,81,90,14.99,CL,1562504581,3868210.0
543,orgun,32.46488916015086,69.04295276873378,,,,,,,
544,itarema,0.5965892671139557,-38.502827786594025,81.14,69,38,8.23,BR,1562504581,3393692.0
545,anchorage,62.48791607379479,-151.12957588503428,61.54,68,1,2.1,US,1562504409,5879400.0
546,umm lajj,26.080611970074784,35.88140360856411,85.28,67,20,11.81,SA,1562504582,100926.0
547,brunsbuttel,53.83803180111545,9.239214523022014,59.92,58,90,18.34,DE,1562504582,2943049.0
548,trincomalee,10.272065425144476,84.61775370214053,91.58,45,58,9.37,LK,1562504582,1226260.0
549,galgani,12.765861424672792,35.01551154318628,,,,,,,
550,san rafael,-35.96330206073899,-67.36805678777853,39.74,81,100,6.91,AR,1562504582,3836669.0
551,alofi,-18.41432281428014,-167.25618186544062,73.4,78,98,9.17,NU,1562504583,4036284.0
552,naze,27.694759415644427,128.4971482569577,79.88,84,100,9.08,NG,1562504583,2337542.0
553,wanning,19.035229758232603,113.62267162939844,70.5,77,75,12.75,AT,1562505087,3220813.0
554,ulladulla,-36.214034115642065,151.39078472000892,49.32,93,61,3.36,AU,1562504583,2145554.0
555,lakatoro,-17.34892841360616,166.19421708615954,78.26,78,64,13.42,VU,1562504583,2136697.0
556,zhanaozen,43.14425882677074,53.96527212446159,94.46,19,0,10.63,KZ,1562504584,607610.0
557,sorong,-1.3521296403889949,129.53811692038198,74.48,95,99,6.93,ID,1562504584,1626542.0
558,south lake tahoe,38.061488024784836,-119.92215251783585,51.64,75,1,4.7,US,1562504417,5397664.0
559,kapit,2.2055272117842435,114.46920429919442,78.44,76,16,1.52,MY,1562504584,1737185.0
560,nakatsu,33.47315700715852,131.2201688399798,73.4,78,75,9.17,JP,1562504585,1855757.0
561,maragogi,-15.144696785788653,-25.73521065252899,78.8,76,5,3.83,BR,1562504481,3395458.0
562,naryan-mar,67.44507551373562,52.31934772592956,47.66,65,0,24.63,RU,1562504585,523392.0
563,high level,58.49289477496578,-116.03406005562769,55.4,76,1,11.41,CA,1562504585,5975004.0
564,santa rosa,-16.48221461366056,-62.17520312716297,39.56,86,100,8.7,AR,1562504559,3835994.0
565,saint anthony,53.816922592078214,-53.611577578216554,55.44,71,20,6.93,US,1562504421,5606187.0
566,kanganpur,30.730248455410987,74.0968083886959,106.7,24,55,4.36,IN,1562504586,1256052.0
567,kupang,-13.654832768305553,123.79178612438324,75.2,60,20,11.41,ID,1562504586,2057087.0
568,boone,41.94057013814114,-94.0900646141062,71.8,77,1,8.05,US,1562504492,4456703.0
569,takapau,-39.7321094321032,176.3514052767943,48.0,77,100,8.01,NZ,1562504586,2181988.0
570,luwingu,-10.01248201326473,29.874353167137173,83.48,22,21,4.7,ZM,1562504586,908913.0
571,ellisras,-23.19852480240357,28.337832806344323,78.98,5,0,14.81,ZA,1562504587,1005768.0
572,shahreza,31.662771360362413,52.05382370772708,93.92,9,23,9.93,IR,1562504587,417594.0
573,veraval,16.701806485761935,68.21736231603205,74.82,64,75,9.17,FR,1562504587,3031871.0
574,samusu,-10.361299174547668,-169.36773296343296,,,,,,,
575,janakkala,61.174791541121124,24.77063906473805,59.49,67,40,11.41,FI,1562504587,656073.0
576,chokurdakh,74.07792862500332,145.2737144738465,43.7,80,100,10.89,RU,1562504588,2126123.0
577,parker,39.30098195350345,-104.5141737032055,65.75,100,90,5.82,US,1562504588,5230309.0
578,broome,-19.298406930780118,121.23743892733518,66.47,45,20,5.82,GB,1562504588,2656067.0
579,guilford,41.27233100457613,-72.65264225658662,73.27,73,1,9.17,US,1562504588,4835512.0
580,bambanglipuro,-15.892657394121372,109.41880939705953,76.82,81,0,18.88,ID,1562504589,1650434.0
581,oriximina,-1.8319621605867695,-56.12589404767135,78.98,78,100,2.62,BR,1562504589,3393471.0
582,oka,7.174762489658406,5.899357231703561,64.92,59,20,8.05,CA,1562504589,6092873.0
583,saint-nazaire,47.13482818976405,-2.0090294648881297,81.95,34,0,8.05,FR,1562504589,2977921.0
584,pietarsaari,64.18019870751363,22.11765396459154,,,,,,,
585,curuca,0.9404264646861122,-48.01726112025676,74.48,96,61,1.99,BR,1562504589,3663145.0
586,ambon,-5.48461935923801,126.80239398487004,80.62,47,0,5.82,FR,1562504590,3037899.0
587,mina,26.13666379258754,-100.59306055185318,77.0,90,22,4.56,PH,1562504590,1699684.0
588,moses lake,47.141314567712755,-118.52968685953753,55.83,59,1,3.36,US,1562504327,5803990.0
589,gimli,53.12196592090547,-96.56039899520033,61.93,68,36,7.74,CA,1562504590,5961417.0
590,campos,-21.889489148652558,-41.400201871760515,71.33,77,75,8.05,PT,1562504591,3107364.0
591,maumere,-9.408352206474405,122.23007611430273,70.88,76,62,6.13,ID,1562504591,1635815.0
592,mountain home,36.244490495825374,-92.48628159871014,60.93,48,1,4.7,US,1562504591,5601615.0
593,mitsamiouli,-7.518887340339916,45.489093780035944,84.2,70,40,18.34,KM,1562505092,921786.0
594,kropotkin,58.94131040378511,114.60214020830114,85.64,34,18,7.38,RU,1562504591,540761.0
595,zhangjiakou,42.49693219918899,115.3538833902195,58.82,76,54,8.66,CN,1562504592,2033196.0
596,halalo,-17.722911112292948,-179.44429508871946,,,,,,,
597,fort dodge,42.70099656078912,-94.39765148421853,68.56,94,1,3.49,US,1562504592,4857486.0
598,lixourion,36.862790972063294,18.954615259890517,85.06,79,20,8.05,GR,1562504592,258175.0
599,chikoy,49.98620775574065,106.83864215574522,,,,,,,
600,verkhniy ufaley,56.04144914121386,60.141645352894784,63.14,75,95,7.38,RU,1562504592,1487394.0
601,hami,37.53318672617277,92.16616347035523,88.16,20,25,7.27,CN,1562504593,1529484.0
602,marrakesh,30.256886836986624,-5.4559779594666225,84.2,42,40,4.7,MA,1562504593,2542997.0
603,boshnyakovo,49.945989741680364,141.3587010930521,52.52,95,71,10.22,RU,1562504593,2126493.0
604,hays,39.2033510507423,-98.77255037041611,65.91,93,40,3.36,US,1562504593,4272782.0
605,udachnyy,67.98847401945099,113.21931258806126,51.8,100,90,6.71,RU,1562504593,2014624.0
606,azimur,33.641818163786866,-8.345567107852872,,,,,,,
607,cumaribo,5.048397231208,-68.8965969353983,,,,,,,
608,ballater,56.96788313196103,-3.1082563122362785,56.52,82,75,19.46,GB,1562504594,2656565.0
609,biak,0.7831212280047453,136.2948151077353,58.46,81,44,4.74,ID,1562504594,1637001.0
610,erzin,47.55465529347276,95.86791018521075,91.17,52,20,12.75,TR,1562504594,296852.0
611,rorvik,66.53596592925305,10.323285651041346,54.28,71,40,5.82,NO,1562504595,3141310.0
612,buin,-6.511567055368516,156.21097376257,46.4,81,90,2.24,CL,1562504595,3897774.0
