,City,Lat,Lng,Temp,Humidity,Cloudiness,Wind Speed,Country,Date,City ID
0,shamary,57.33032150829234,58.25223730828219,52.62,95,70,1.57,RU,1565829868,495904.0
1,lebu,-38.46543247895001,-89.93820589936675,57.2,93,75,2.24,ET,1565829868,344979.0
2,butaritari,25.084861544142967,172.43267039563182,84.12,73,47,11.05,KI,1565829868,2110227.0
3,port elizabeth,-89.35480703926869,34.87842519228914,73.71,94,90,6.93,US,1565829869,4501427.0
4,bredasdorp,-75.67449057603383,17.058862868307045,48.31,87,0,1.12,ZA,1565829869,1015776.0
5,westport,-36.71333531276021,164.45683996300437,72.77,94,40,5.82,US,1565829869,4845585.0
6,chokurdakh,87.68727394733932,143.36355048053377,49.92,47,56,14.54,RU,1565829869,2126123.0
7,weyburn,49.39624745817511,-103.48889434746484,73.0,63,27,4,CA,1565829869,6179652.0
8,albany,-77.31106692196173,111.66474189248015,68.72,60,40,2.04,US,1565829602,5106834.0
9,atuona,3.7247174418412783,-141.9149698480823,79.08,74,24,12.44,PF,1565829870,4020109.0
10,korla,37.62772727918268,84.90535764380343,,,,,,,
11,petropavlovsk-kamchatskiy,50.16073041305478,161.5382694578853,60.8,87,75,4.47,RU,1565829663,2122104.0
12,namibe,-16.833323641915285,12.133428400996678,64.32,89,39,4.09,AO,1565829870,3347019.0
13,tabiauea,-1.7189095640299428,168.9305095895843,,,,,,,
14,northam,-28.681514574119838,119.51467853114303,42.8,93,0,2.86,AU,1565829871,2064550.0
15,dakar,14.722690413392144,-17.933821587745967,78.8,78,75,9.17,SN,1565829643,2253354.0
16,zalantun,47.81025323225174,122.21688034692153,68.28,61,53,1.68,CN,1565829871,2033225.0
17,pyaozerskiy,65.59433928707747,31.41031414237844,49.38,95,94,0.49,RU,1565829871,503581.0
18,east london,-45.039375225398445,38.2533888744164,51.0,89,0,5.03,ZA,1565829819,1006984.0
19,juneau,58.95699309191349,-134.97597249121856,64.22,63,90,6.93,US,1565829871,5554072.0
20,sept-iles,55.763815234596564,-65.78748326296018,63.21,67,75,5.82,CA,1565829684,6144312.0
21,bluff,-76.25659864380198,161.74183659544974,67.92,57,0,15.57,AU,1565829872,2175403.0
22,ambrolauri,42.74811502679839,43.179801299297026,80.6,51,0,17.22,GE,1565829872,615776.0
23,port alfred,-85.04571051840769,54.185807877279586,55.99,92,0,4,ZA,1565829872,964432.0
24,kangaatsiaq,68.36916695644402,-53.86613799525543,45.6,68,0,7.99,GL,1565829873,3422683.0
25,jamestown,-31.14583654050395,-2.3863051625569085,56.58,39,1,15.41,AU,1565829873,2069194.0
26,kissidougou,9.049054943645828,-9.92749955657743,69.18,98,99,1.68,GN,1565829873,2419472.0
27,bengkulu,-23.138025391612473,90.91987536443634,,,,,,,
28,vicuna,-30.607833041893137,-70.06631359278724,,,,,,,
29,urrao,6.224303293580874,-76.44471062528342,57.0,91,100,2.75,CO,1565829873,3666395.0
30,nikolskoye,45.33922533663133,171.65812332836828,56.77,93,40,2.24,RU,1565829874,546105.0
31,torbay,47.26328450721425,-43.63904234740758,61.68,67,20,12.75,CA,1565829874,6167817.0
32,mataura,-58.51961312655944,-155.83020675829874,52.0,84,100,8.99,NZ,1565829874,6201424.0
33,saldanha,-38.48132056656019,4.484072902848766,65.58,79,0,3.13,PT,1565829874,2737599.0
34,new norfolk,-71.91372053732468,132.8580223845172,58.05,41,75,17.22,AU,1565829875,2155415.0
35,meulaboh,-2.9322020723756594,88.73961885659281,80.52,74,100,8.16,ID,1565829875,1214488.0
36,ushuaia,-71.37926370829545,-46.203587187838906,23.82,93,45,4.25,AR,1565829875,3833367.0
37,san policarpo,14.421709321161373,129.36933544048566,82.68,71,100,4.18,PH,1565829875,1688696.0
38,aksu,38.39372313495812,81.14239224526398,64.4,63,90,6.71,KZ,1565829875,1524298.0
39,qaanaaq,74.63350852220265,-73.59614760282065,45.6,47,1,4.81,GL,1565829876,3831208.0
40,illoqqortoormiut,88.8105789562646,-27.323996178941997,,,,,,,
41,puerto ayora,-7.98925397273932,-100.72885372694472,70.7,69,20,17.22,EC,1565829876,3652764.0
42,grand river south east,-19.04921407176856,76.03626915465793,,,,,,,
43,provideniya,68.27544567895481,-174.93209254132702,51.8,87,90,11.18,RU,1565829876,4031574.0
44,busselton,-64.05023019499637,100.35728612483734,46.98,98,97,8.84,AU,1565829877,2075265.0
45,saskylakh,79.58523992636762,117.36189062000949,47.04,70,38,7.85,RU,1565829877,2017155.0
46,barentsburg,89.76348688309432,12.45126236828878,,,,,,,
47,rikitea,-75.46205222623712,-128.07745203754064,73.86,83,10,12.95,PF,1565829877,4030556.0
48,hermanus,-49.8104532325369,12.986049610499975,53.67,87,17,7,ZA,1565829877,3366880.0
49,norman wells,81.60975664629436,-116.78185825573058,64.4,63,75,25.28,CA,1565829878,6089245.0
50,axim,-0.8303627635950193,-3.8839650505912857,74.76,94,16,6.87,GH,1565829878,2303611.0
51,saint-philippe,-69.00468076617332,71.59108623733079,67.57,68,40,6.93,CA,1565829878,6138908.0
52,punta arenas,-63.87921209360931,-106.7337250155208,30.09,86,0,6.93,CL,1565829878,3874787.0
53,margate,-36.287502443003596,36.589436167793224,58.05,41,75,17.22,AU,1565829879,2158744.0
54,parakan,-6.752524813144575,109.98938984724293,72.6,85,66,1.45,ID,1565829879,1643920.0
55,kuusankoski,60.817035219715876,26.347329479650654,47.82,87,0,5.82,FI,1565829880,649919.0
56,avera,-31.164442598095377,-156.09951119180698,81.43,74,40,5.82,US,1565829880,4231997.0
57,ostrovnoy,76.43472512664763,42.20135023781856,51.36,92,79,8.57,RU,1565829880,556268.0
58,mount gambier,-59.111720611415855,127.37978587902938,48.2,76,75,13.87,AU,1565829881,2156643.0
59,bonavista,51.19900198131435,-50.659144022643005,60.01,84,79,1.01,CA,1565829881,5905393.0
60,berestechko,50.34894041150815,25.308164849613263,55.0,10,100,9.98,UA,1565829881,712416.0
61,avarua,-55.68458751165374,-161.7684778683775,77.0,73,0,9.17,CK,1565829876,4035715.0
62,hilo,12.768636085418834,-135.1045430323354,78.58,69,90,18.34,US,1565829882,5855927.0
63,luderitz,-35.37785920997951,-2.3180839573541334,87.8,11,0,26.4,NA,1565829882,3355672.0
64,mount isa,-22.488977408085162,138.14431703128957,73.4,23,74,9.17,AU,1565829882,2065594.0
65,kaitangata,-71.57469429629234,174.64118864987864,52.0,60,100,15.01,NZ,1565829882,2208248.0
66,zunyi,27.122272101554913,107.13421064925512,70.98,89,17,0.92,CN,1565829883,1783621.0
67,coahuayana,3.600788143580587,-111.48593955985743,84.48,77,30,1.81,MX,1565829883,3981460.0
68,bathsheba,15.112919672339018,-57.301849615294174,82.4,78,40,24.16,BB,1565829883,3374083.0
69,umzimvubu,-35.69753779113349,32.48598208118011,,,,,,,
70,viedma,-40.367829935383504,-63.961321869947966,48.66,53,73,12.8,AR,1565829883,3832899.0
71,hamilton,29.399266211573902,-69.47875643076331,70.52,60,75,8.05,CA,1565829846,5969785.0
72,naze,25.904557951648826,131.41312005454273,72.96,95,9,4,NG,1565829884,2337542.0
73,srednekolymsk,67.70070459281658,154.32805304134183,52.62,48,0,13.62,RU,1565829884,2121025.0
74,bolungarvik,69.68730021720776,-28.571957077747584,,,,,,,
75,thompson,59.85616844159918,-97.0237592267127,69.8,52,75,5.82,CA,1565829698,6165406.0
76,bereda,11.763208289945169,52.06833704449005,60.3,93,90,1.12,ES,1565829884,3105522.0
77,marcona,-21.132086570527193,-83.19638681338003,,,,,,,
78,anadyr,62.92172049402865,172.615211142136,50.0,53,20,15.66,RU,1565829885,2127202.0
79,sovetskiy,72.78525671310922,67.55855342426685,50.28,91,86,2.66,RU,1565829885,490040.0
80,tuatapere,-52.53314654709559,161.4799911086929,52.0,84,99,8.99,NZ,1565829885,2180815.0
81,lompoc,31.336671953308183,-126.23615451878442,71.47,64,1,11.41,US,1565829885,5367788.0
82,cape town,-53.33243802554519,5.941960440835288,52.41,100,0,3.36,ZA,1565829885,3369157.0
83,kieta,-1.334515502331854,157.78450226284644,84.3,67,9,8.84,PG,1565829886,2094027.0
84,ksenyevka,54.20485981162577,118.40367081130609,,,,,,,
85,prieska,-29.33078773994046,23.34043266168902,49.38,26,0,10.56,ZA,1565829886,964090.0
86,hithadhoo,-8.219994917090673,84.79641006869463,82.5,73,100,5.21,MV,1565829886,1282256.0
87,dum duma,27.64479116024988,95.58825778447363,78.8,100,90,4.7,IN,1565829886,1272242.0
88,mar del plata,-41.407869080183424,-53.38854844900352,33.18,54,0,6.42,AR,1565829887,3863379.0
89,klaksvik,80.11610492242698,-4.690536198271786,48.2,93,24,9.17,FO,1565829887,2618795.0
90,kahului,30.16886363477056,-153.42944459898632,81.63,55,40,19.46,US,1565829887,5847411.0
91,jacqueville,4.179765631829753,-4.390419300485263,75.2,94,75,4.7,CI,1565829887,2290582.0
92,merauke,-7.182143362924322,137.85918752355406,77.46,85,100,19.42,ID,1565829888,2082539.0
93,faya,20.871141923150418,23.66127624190719,64.45,72,0,1.79,SA,1565829888,110690.0
94,khovu-aksy,50.82901805516835,93.55092959689773,59.1,62,100,1.68,RU,1565829888,1503527.0
95,kendari,-3.583374736732793,123.36463443812892,77.28,72,65,1.03,ID,1565829888,1640344.0
96,flagstaff,36.254617898818026,-111.61094956531686,86.47,8,1,9.17,US,1565829888,5294810.0
97,taolanaro,-84.5772438708189,64.14466732131012,,,,,,,
98,tuktoyaktuk,87.04709207192488,-134.38795853220563,42.8,93,90,17.22,CA,1565829889,6170031.0
99,san quintin,22.19890645691035,-127.60876995525805,79.98,87,100,12.37,PH,1565829889,1688687.0
100,tumannyy,72.80941562862975,35.444193638758264,,,,,,,
101,san patricio,14.662338792213774,-108.78428653191324,44.52,84,0,4.56,PY,1565829889,3437029.0
102,lata,-10.355617251669472,166.95350447553892,45.96,98,100,3.06,IN,1565829890,1253628.0
103,rocha,-34.758994795925005,-53.48197243508238,37.68,87,0,4.63,UY,1565829890,3440777.0
104,ponta delgada,34.08858645831721,-26.206522351507317,68.0,88,20,2.24,PT,1565829890,3372783.0
105,khonuu,67.59844247575637,142.8450543818363,,,,,,,
106,pacific grove,33.727804383476254,-125.9519539852762,82.81,53,1,8.05,US,1565829660,5380437.0
107,camacha,37.062459397860565,-17.508800139985766,69.01,88,75,12.75,PT,1565829845,2270385.0
108,hobart,-78.32509222891404,134.89372519028262,58.05,41,75,17.22,AU,1565829891,2163355.0
109,moron,46.42649868311926,97.71696356065223,83.22,71,38,4.14,HT,1565829891,3720455.0
110,nantucket,41.02388161998695,-67.99371410084237,65.66,93,90,11.41,US,1565829827,4944903.0
111,boffa,10.132818901086225,-13.909426879137442,78.36,89,89,7.65,GN,1565829891,2422968.0
112,kiama,-37.18386012953658,155.1132021045397,59.47,38,0,12.75,AU,1565829891,2161515.0
113,dikson,89.80127940179798,69.17430392393868,44.34,94,100,15.52,RU,1565829892,1507390.0
114,souillac,-48.98107618855966,70.99998338516673,65.59,93,90,6.93,FR,1565829892,3026644.0
115,sentyabrskiy,31.590941210718427,159.25262704876218,,,,,,,
116,ponta do sol,22.31066354481389,-40.654303114690265,61.44,75,14,6.44,BR,1565829892,3453439.0
117,aykhal,65.89886380275362,111.32566748193778,46.4,100,90,6.71,RU,1565829892,2027296.0
118,romitan,39.75501191279275,64.11036639403844,64.4,36,0,6.93,UZ,1565829892,1217662.0
119,ngukurr,-18.66887569957457,133.92887603758794,,,,,,,
120,outjo,-20.010774112665445,15.973727925277387,62.6,20,0,3.36,NA,1565829893,3353715.0
121,ossora,58.61966578266484,162.0243206053749,65.22,58,0,8.32,RU,1565829893,2122389.0
122,tosya,40.5303904096003,34.0064008936352,74.94,30,76,1.99,TR,1565829893,738662.0
123,cairns,-15.322614187580513,146.3709907444166,71.78,69,90,17.22,AU,1565829893,2172797.0
124,esperance,-29.447844688747594,123.85732047019678,50.0,93,90,13.87,AU,1565829672,2071860.0
125,karauzyak,45.30518167765959,58.96367208511731,,,,,,,
126,kruisfontein,-84.40064213561635,28.324926075799993,50.46,90,30,5.93,ZA,1565829894,986717.0
127,simav,38.98485290582107,29.078637910341314,71.01,10,3,5.5,TR,1565829894,300791.0
128,medicine hat,50.49832731134123,-110.19852957604748,72.97,47,75,16.11,CA,1565829894,6071618.0
129,cidreira,-40.918811238631186,-40.24686402934219,49.92,89,1,5.99,BR,1565829894,3466165.0
130,victoria,0.9145624893848066,59.13508704221036,81.32,83,75,3.36,BN,1565829649,1733782.0
131,karamea,-38.98331723295136,169.66552341138237,,,,,,,
132,morant bay,15.160737765800533,-75.33382366666183,87.8,45,20,16.11,JM,1565829895,3489440.0
133,vostok,51.884349781233965,149.08993008549191,67.38,83,100,1.83,RU,1565829895,2013279.0
134,dingle,51.67573173378901,-14.755325939926905,81.24,77,100,8.93,PH,1565829895,1714733.0
135,arlit,19.964813740440505,8.687466667321274,94.02,32,13,11.48,NE,1565829896,2447513.0
136,husavik,77.47910639568494,-10.481289721986883,72.07,41,67,3,CA,1565829896,5961417.0
137,tasiilaq,67.2261680344584,-32.26264355377526,35.6,100,0,6.93,GL,1565829896,3424607.0
138,georgetown,-11.087138730610548,-12.555402424434249,78.8,88,20,2.24,GY,1565829896,3378644.0
139,casper,43.003907117390725,-107.30082806859927,84.69,11,1,16.11,US,1565829614,5820705.0
140,bogovarovo,58.9653060056028,47.257236869677,52.44,95,100,1.21,RU,1565829897,575480.0
141,cam ranh,11.447836770052277,110.9291224528937,87.8,70,20,4.7,VN,1565829897,1586350.0
142,tha maka,14.00145264366968,99.72862986402907,77.82,85,99,3.96,TH,1565829897,1150275.0
143,kimbe,-4.361796754531085,148.9602368813416,87.18,57,39,4.32,PG,1565829897,2093967.0
144,tomatlan,19.486748236132385,-105.43638253168486,84.12,75,19,15.03,MX,1565829897,3981391.0
145,carnarvon,-23.537240343408,98.91558512980492,49.2,27,0,7.18,ZA,1565829898,1014034.0
146,faanui,-12.314149332595349,-151.22816835462396,78.9,75,59,8.99,PF,1565829898,4034551.0
147,arraial do cabo,-26.533370076825825,-39.232523878472136,60.8,87,90,10.29,BR,1565829898,3471451.0
148,kapaa,32.66646985305459,-169.37341414548723,85.91,62,40,12.75,US,1565829898,5848280.0
149,saleaula,-3.1373004567422527,-173.33759521897136,,,,,,,
150,madang,-5.114053334944472,146.64949745124568,44.34,75,0,2.57,CN,1565829899,7413703.0
151,nizhneyansk,85.542868416219,135.93433299951676,,,,,,,
152,constitucion,20.256298799162465,-120.3227473692437,71.6,40,75,11.41,MX,1565829899,4011743.0
153,laguna,-35.38809097385045,-40.92411157782766,82.4,83,75,6.93,BZ,1565829899,3581398.0
154,salalah,12.474232743329281,61.22497350364847,77.0,94,90,5.82,OM,1565829646,286621.0
155,port keats,-15.132043275610982,129.56208116888058,70.44,33,1,11.3,AU,1565829900,2063039.0
156,jahrom,28.506534582880874,53.87714234455427,,,,,,,
157,hambantota,-5.595641444284169,84.43427041517867,81.24,79,100,19.51,LK,1565829900,1244926.0
158,codrington,24.78702231399511,-58.77336363607371,66.02,63,0,3.65,AU,1565829900,2160063.0
159,luangwa,-16.11016180851,30.719794403515664,61.26,53,0,2.89,MZ,1565829900,909887.0
160,pindobacu,-10.764163575990722,-40.859250226706564,66.84,67,91,7.65,BR,1565829901,3453827.0
161,belushya guba,83.51673099388793,54.767791885911834,,,,,,,
162,oreanda,43.98258846132774,34.46183240458777,,,,,,,
163,port lincoln,-37.06539541390418,134.83209178057922,58.74,53,99,20.09,AU,1565829901,2063036.0
164,svetlogorsk,67.01013987690109,91.65005748609155,53.6,100,40,8.95,RU,1565829901,584051.0
165,khatanga,67.64186489907556,105.06053110097724,52.8,60,0,7.09,RU,1565829902,2022572.0
166,longyearbyen,87.57056245271679,21.195729354313073,37.4,86,75,2.24,NO,1565829902,2729907.0
167,egvekinot,64.3646096699473,-178.95571842470392,31.92,92,70,11.52,RU,1565829839,4031742.0
168,san jeronimo,13.225440245341687,-102.52864326977087,47.58,97,2,4.81,PE,1565829902,3929607.0
169,lubu,23.17856240943489,112.08328805140115,82.5,81,33,2.82,CN,1565829903,1802177.0
170,vaini,-26.281075473852795,-179.56190845252593,69.8,100,75,6.93,IN,1565829903,1273574.0
171,steinbach,48.96474071158019,-96.88164149200512,71.4,53,75,4.7,CA,1565829903,6156102.0
172,zabaykalsk,48.727073228332955,116.96731215877554,60.9,59,1,9.71,CN,1565829904,2012780.0
173,barrow,83.80301895918686,-151.07270279903221,43.26,55,76,13.22,AR,1565829904,3833859.0
174,ariguani,10.346982392245252,-74.11198160005794,82.68,74,100,5.41,CO,1565829904,3689589.0
175,turukhansk,63.477046503135284,89.57497317643936,57.84,81,98,5.75,RU,1565829905,1488903.0
176,broken hill,-30.034714689603177,140.48720222393172,60.8,26,0,13.87,AU,1565829905,2173911.0
177,bethel,57.93578600773694,-165.89760429329786,57.2,93,90,9.17,US,1565829905,5880568.0
178,coihaique,-49.727975189446624,-82.41197119666721,38.79,52,0,10.29,CL,1565829905,3894426.0
179,rawannawi,1.797341748816791,173.5332168731337,,,,,,,
180,baykit,65.92111820634526,95.13446614073365,54.42,92,44,4.99,RU,1565829906,1510689.0
181,moose factory,54.27441098270978,-78.60967690591804,62.6,72,75,8.05,CA,1565829906,6078372.0
182,burnie,-42.32455389475845,143.76257831542847,55.99,66,69,1.99,AU,1565829906,2173125.0
183,teguise,30.938380956148194,-12.115372492054604,73.4,83,20,21.92,ES,1565829906,2510573.0
184,samusu,-10.101013897403718,-167.38742478760597,,,,,,,
185,mahibadhoo,3.604157560276562,69.3670120556196,83.4,75,100,6.49,MV,1565829907,1337605.0
186,saint anthony,54.38680056543424,-57.15769003925959,83.35,17,1,8.05,US,1565829907,5606187.0
187,jiazi,20.851010904477477,117.48823418160777,84.2,83,40,4.47,CN,1565829907,1894019.0
188,mrirt,30.864092199144153,-4.6629692609864435,,,,,,,
189,cabo san lucas,11.637407620442772,-114.38863290951373,87.66,49,20,8.05,MX,1565829830,3985710.0
190,jabinyanah,34.827326195090976,11.518034016825396,80.6,47,0,5.82,TN,1565829676,2470260.0
191,tazovskiy,66.63165423632174,79.16514394438855,48.66,78,91,10.16,RU,1565829908,1489853.0
192,krasnoselkup,66.92652668752359,81.74440785678945,,,,,,,
193,mount pleasant,31.621236110990864,-79.18952859372071,85.87,69,1,2.06,US,1565829908,4712933.0
194,darnah,33.377418897715884,23.337337739018494,79.08,84,0,19.66,LY,1565829611,87205.0
195,coquimbo,-28.399155538563384,-80.94296109314061,55.4,82,90,4.7,CL,1565829908,3893629.0
196,port hardy,48.82085706798554,-127.44993176612982,69.8,64,20,13.87,CA,1565829908,6111862.0
197,birao,9.95765987698499,23.002481675101137,71.88,94,99,7.47,CF,1565829909,240210.0
198,santa isabel,29.33841542372545,-113.27762078477473,113.0,5,1,15.23,MX,1565829909,3996069.0
199,prince albert,53.45151906836625,-105.40764053618555,71.6,49,40,10.29,CA,1565829909,6113335.0
200,mezen,70.97849408449369,46.49399608047963,48.48,96,66,6.44,RU,1565829909,527321.0
201,karratha,-15.802947198337364,110.99158789200465,66.3,72,74,9.86,AU,1565829909,6620339.0
202,castro,-46.67163464754531,-80.87687403244608,42.8,87,0,2.24,CL,1565829910,3896218.0
203,alice springs,-20.81536977978685,134.44699572656987,64.4,13,0,1.12,AU,1565829910,2077895.0
204,mehamn,78.30309589644125,26.88703952562713,43.26,95,100,10.33,NO,1565829910,778707.0
205,sendai,31.949814971319768,130.45092096539554,86.13,88,75,8.05,JP,1565829910,2111149.0
206,buraydah,24.3918435863241,43.60174108418795,82.4,30,0,12.75,SA,1565829911,107304.0
207,beatrice,40.476300377459324,-97.5544846191911,73.49,69,1,6.93,US,1565829911,5063646.0
208,palabuhanratu,-18.04462613467743,102.29323409868874,,,,,,,
209,kiri buru,22.101634487709703,85.32288678568148,73.32,93,83,3.18,IN,1565829911,1266503.0
210,selikhino,50.473137583644274,137.55599381749124,65.58,63,95,8.05,RU,1565829911,2017042.0
211,nanortalik,59.82137908213571,-40.37203438536636,42.36,79,1,3.36,GL,1565829912,3421765.0
212,betki,54.922736999313315,53.64224756873625,,,,,,,
213,prainha,-1.1935794920068474,-53.44812401481988,74.94,95,59,1.74,BR,1565829912,3391287.0
214,alta floresta,-11.417981645084907,-54.3790248348181,82.4,45,0,3.36,BR,1565829912,6316343.0
215,nyaunglebin,18.420783162767265,97.04246498790053,75.3,97,76,1.57,MM,1565829912,1303406.0
216,airai,12.650518168074441,145.88224019719303,77.1,48,0,1.5,TL,1565829913,1651810.0
217,mys shmidta,87.64221831743907,-176.40242113825445,,,,,,,
218,mapiripan,2.57289945648796,-71.5917922092436,73.14,90,65,4.32,CO,1565829913,3792394.0
219,ilulissat,89.10688138587358,-39.53340114348185,44.6,56,15,11.5,GL,1565829913,3423146.0
220,esso,56.77704068877597,158.53025368302644,57.3,64,13,4.83,RU,1565829913,2125711.0
221,north battleford,53.23940055205975,-107.74119483431404,75.09,33,1,12.75,CA,1565829914,6089404.0
222,portland,-48.10063319072136,135.87178699840814,65.03,82,1,4.7,US,1565829794,4975802.0
223,itanhaem,-25.1654663363599,-46.20447156084683,51.8,87,90,10.29,BR,1565829914,3460791.0
224,ypsonas,33.60660530978619,32.710339549297714,76.66,78,0,5.82,CY,1565829914,145952.0
225,pisco,-21.486615719090622,-90.83520438485895,59.0,87,90,5.82,PE,1565829914,3932145.0
226,dunedin,-51.888480767243536,178.85159998100897,49.74,67,79,13.2,NZ,1565829790,2191562.0
227,sibolga,-1.2786037657584473,94.79600395962592,80.88,83,100,9.98,ID,1565829915,1213855.0
228,mragowo,53.64497268672045,21.49428604258111,50.82,90,0,5.91,PL,1565829915,764312.0
229,hasaki,23.566987726951936,158.34667043242706,87.66,74,75,12.75,JP,1565829915,2112802.0
230,pangnirtung,68.73649910431163,-62.01911723908438,51.18,47,2,3.83,CA,1565829915,6096551.0
231,bloemfontein,-29.62477512139116,25.98024622978261,35.6,47,0,3.36,ZA,1565829916,1018725.0
232,magadi,-1.9969895889837375,35.492224779198665,70.66,88,40,11.41,IN,1565829916,1264514.0
233,baracoa,21.501736840243865,-73.88732574433415,84.84,75,100,5.46,CU,1565829916,3567834.0
234,adra,36.017283588812916,-3.0161781910843786,72.18,83,0,1.12,ES,1565829916,2522430.0
235,comendador,18.976536448136514,-71.71892499393938,87.8,52,75,10.29,HT,1565829916,3509386.0
236,cherskiy,84.9440500285881,163.8310482425764,46.68,50,0,10.22,RU,1565829917,2126199.0
237,khuzdar,27.540828569543194,65.92646806446422,76.56,66,11,1.48,PK,1565829917,7082481.0
238,general pico,-35.22405743384215,-64.2092509418618,49.38,43,100,15.82,AR,1565829917,3855075.0
239,mingguang,33.120734259229295,117.80935837989256,78.72,86,0,7.34,CN,1565829917,1800519.0
240,ribeira grande,33.362894772396345,-34.19023857741266,72.6,84,0,8.01,PT,1565829917,3372707.0
241,jiayuguan,41.970369122190874,98.36666875493472,74.76,12,0,7.63,CN,1565829918,1280957.0
242,pevek,75.54452274510211,170.74737837400005,33.36,97,100,20.58,RU,1565829918,2122090.0
243,abha,21.136891770074925,44.75393305664184,64.47,72,0,7.54,SA,1565829918,110690.0
244,itarema,8.415559330635176,-37.545433345374136,76.74,80,18,9.46,BR,1565829918,3393692.0
245,karimpur,24.03643975821386,88.55027525066231,78.18,94,100,7.27,BD,1565829919,1267754.0
246,caravelas,-20.1835471317969,-35.01782907562401,72.42,82,38,26.91,BR,1565829919,3466980.0
247,seoul,36.21803501905967,128.0621977265278,78.13,83,75,3.36,KR,1565829711,1835848.0
248,kanniyakumari,6.686636891736811,77.69955465602231,79.26,81,99,24.16,IN,1565829919,1268008.0
249,banmo,23.616586093233437,96.97265177834447,,,,,,,
250,samarai,-15.982370171024698,153.50520423374263,78.0,90,17,5.93,PG,1565829919,2132606.0
251,saint george,30.730970509345184,-52.50286134749172,76.03,69,20,6.93,GR,1565829920,262462.0
252,sitka,42.512500800333726,-142.61914799492206,84.54,48,0,11.01,US,1565829920,4267710.0
253,tsihombe,-44.244579869527755,44.16465687397769,,,,,,,
254,gospic,44.34943238877804,15.512183708773222,66.2,59,0,5.82,HR,1565829762,3199873.0
255,walvis bay,-23.393876263817802,12.24346063156844,54.46,82,0,8.05,NA,1565829920,3359638.0
256,cockburn town,23.23055122471392,-73.19169510709403,83.76,80,0,21.3,TC,1565829921,3576994.0
257,grindavik,59.98688867209856,-22.658409905600934,45.55,87,0,9.17,IS,1565829921,3416888.0
258,port-gentil,-1.5544011284950159,4.1486777801076755,74.4,87,0,15.08,GA,1565829921,2396518.0
259,kano,11.984813228665885,8.52967070270509,78.8,83,20,10.29,NG,1565829921,2335204.0
260,bintulu,3.2660270964807125,112.41549789526204,75.2,100,90,9.17,MY,1565829921,1737486.0
261,dawlatabad,35.470489080538385,64.24708682097429,63.42,22,0,8.61,AF,1565829922,1142226.0
262,yellowknife,82.31747339279005,-111.22587109670756,62.6,72,75,5.82,CA,1565829922,6185377.0
263,puerto del rosario,25.92960364336261,-13.483765514376358,74.17,69,7,12.75,ES,1565829922,2512186.0
264,bur gabo,-2.499077281405917,42.85119294154666,,,,,,,
265,kathu,7.444565164698389,97.20843809843785,46.0,35,0,15.59,ZA,1565829923,991664.0
266,sinnamary,5.0552295242289915,-53.19936731848546,82.5,75,4,10.36,GF,1565829923,3380290.0
267,vanavara,60.57162719541603,102.26016341172556,58.38,76,77,3.44,RU,1565829923,2013727.0
268,plettenberg bay,-43.878389947170255,23.596498787226096,51.54,89,10,3.62,ZA,1565829923,964712.0
269,tupik,55.10248153277141,118.59965299940848,53.52,88,72,3.49,RU,1565829923,2014836.0
270,nakamura,31.310056938713885,133.41542216955435,84.45,79,75,36.91,JP,1565829924,1856057.0
271,biak,0.6631630411604021,138.37746636786176,63.78,87,100,5.32,ID,1565829924,1637001.0
272,windhoek,-22.8273466703925,17.17889524955379,56.46,22,0,11.41,NA,1565829924,3352136.0
273,dawei,13.688749741406085,95.64406606959898,81.24,81,100,4.14,MM,1565829924,1293625.0
274,moshupa,-24.74860292429321,24.608343576400642,59.0,44,0,5.82,BW,1565829925,933018.0
275,guerrero negro,15.043618404649536,-130.5213957339248,68.64,80,0,17.02,MX,1565829925,4021858.0
276,tual,-7.509774829849235,133.5947925274266,76.56,87,87,15.01,ID,1565829925,1623197.0
277,gazanjyk,40.6924492896425,56.72663154385177,72.42,36,0,9.75,TM,1565829925,161974.0
278,bilibino,66.75662377608757,164.48952959456903,37.5,58,86,11.59,RU,1565829925,2126682.0
279,broome,-22.263041218063293,123.96106932652413,61.9,100,98,9.17,GB,1565829926,2656067.0
280,haines junction,62.37800294921078,-138.95873109231502,61.98,51,100,4.56,CA,1565829926,5969025.0
281,labutta,13.459613414210153,95.40510556601356,,,,,,,
282,zhangye,40.85147018700965,100.38288158179625,71.34,27,0,3.94,CN,1565829926,1785036.0
283,dubbo,-32.184701478026156,148.30922308084075,51.8,43,0,5.82,AU,1565829926,2168305.0
284,cordoba,-29.949769985013987,-64.25621846882947,47.22,43,51,1.34,AR,1565829926,3846616.0
285,hovd,46.40508598956009,100.2206856941607,50.5,93,40,6.93,NO,1565829927,7626384.0
286,tubruq,30.742442011440687,22.639917404427337,,,,,,,
287,umm lajj,25.485570470885875,38.99377807882496,87.36,78,0,4.9,SA,1565829927,100926.0
288,la plata,-35.499756444597466,-57.599755986618106,48.79,61,0,11.41,AR,1565829655,3432043.0
289,vagur,60.179503559547214,-6.830237069955217,50.64,85,55,7.85,FO,1565829777,2610806.0
290,sawankhalok,17.17532822871911,99.62330424872147,79.81,94,75,2.24,TH,1565829927,1150681.0
291,muli,2.061555112667719,76.2089483446984,74.58,77,72,1.43,CN,1565829928,7304020.0
292,raudeberg,68.62277610198225,1.1093317752251153,50.2,93,55,9.17,NO,1565829928,3146487.0
293,la macarena,1.9993595702076163,-74.33759654322652,69.72,94,28,3.22,CO,1565829928,3827693.0
294,sedelnikovo,57.1433159793894,76.06967314676746,,,,,,,
295,fortuna,38.10683399889791,-131.37038998238665,68.11,82,75,13.87,US,1565829929,5563839.0
296,chuy,-37.02764454372947,-49.039542886975255,43.8,83,0,6.73,UY,1565829929,3443061.0
297,kupang,-13.774134354709787,124.27668092548686,77.0,57,20,10.29,ID,1565829929,2057087.0
298,nuuk,60.37404329936609,-56.59967630743358,44.31,87,37,6.93,GL,1565829929,3421319.0
299,chetumal,18.281450915211693,-88.09110098514564,87.8,66,40,13.87,BZ,1565829660,3531023.0
300,axams,47.248341701724684,11.261596203630091,48.74,87,0,2.24,AT,1565829929,7873600.0
301,rawson,-47.246341266351706,-59.781913699718274,39.48,67,93,19.73,AR,1565829930,3839307.0
302,biltine,15.316490368080622,22.300708076556475,77.28,75,86,17.09,TD,1565829930,244878.0
303,kasongo-lunda,-5.682499958796512,16.977743448457744,69.9,81,27,1.77,CD,1565829930,2315026.0
304,hailey,43.33821899606116,-113.82451996082732,83.57,18,20,9.17,US,1565829778,5594956.0
305,balabac,8.758265424621968,114.70799102192302,83.94,71,93,5.48,PH,1565829930,1728675.0
306,mayo,66.2083409160272,-138.69308738603706,71.6,35,90,16.11,CA,1565829851,6068416.0
307,coyuca,17.217483372533863,-100.14600140074168,,,,,,,
308,fevralsk,53.583122735103984,129.37755428648381,,,,,,,
309,maniitsoq,63.42894299430969,-53.89163600459072,45.42,76,45,7.96,GL,1565829931,3421982.0
310,kodiak,40.15998436710507,-149.30710427680503,74.34,73,1,8.05,US,1565829931,4407665.0
311,kyaiklat,16.413968035623554,95.63838967793544,80.6,88,90,3.36,MM,1565829931,1317397.0
312,baruun-urt,47.755973419947,112.93168507403067,56.22,62,94,11.48,MN,1565829932,2032614.0
313,lorengau,-1.4197356581973253,145.58297806714802,84.12,71,4,7.31,PG,1565829932,2092164.0
314,lasa,34.224566345072674,87.07080601672845,73.78,88,40,6.93,CY,1565829932,146639.0
315,clyde river,68.5071961853564,-73.89322077291307,39.2,93,75,8.05,CA,1565829932,5924351.0
316,sorland,68.52962164560421,9.59110817637989,53.88,90,100,11.81,NO,1565829933,3137469.0
317,maykain,51.54720398466597,75.6170062850696,,,,,,,
318,attawapiskat,59.64381985229062,-83.32788861942988,,,,,,,
319,antalya,36.82655337347086,30.83318795379796,78.96,83,75,1.97,TR,1565829933,323777.0
320,ashqelon,31.92577109421252,34.13552299308179,73.11,78,20,8.05,IL,1565829933,295620.0
321,puerto rico,1.9022685279764602,-75.21380386619978,55.68,90,100,1.32,CO,1565829933,3671348.0
322,bojnurd,37.95424479527206,56.96378717092708,55.4,54,0,2.24,IR,1565829934,140380.0
323,muros,42.49196353829009,-15.906685105219509,61.25,93,20,1.12,ES,1565829934,3115824.0
324,grand gaube,-15.332465259721431,63.90849313834153,69.01,83,0,1.99,MU,1565829934,934479.0
325,krasnogorsk,48.692910591454535,141.62956863099538,60.71,82,75,13.42,RU,1565829934,542374.0
326,tiksi,81.52526092236516,128.94909077224395,56.04,67,17,6.98,RU,1565829934,2015306.0
327,achit,57.102112891993926,57.75586336056551,53.88,93,49,1.54,RU,1565829935,584308.0
328,sao filipe,13.370059321800511,-25.133093079200847,74.94,85,0,15.46,CV,1565829935,3374210.0
329,along,29.31955047810463,94.06257666728374,61.08,98,63,2.35,IN,1565829935,1278969.0
330,bambous virieux,-36.03479483545063,78.06516486116021,69.01,83,2,1.99,MU,1565829935,1106677.0
331,surt,33.15209313840974,17.431981983375096,81.96,79,0,16.87,LY,1565829936,2210554.0
332,khasan,41.96001174082738,130.68054685679067,66.66,99,100,5.55,RU,1565829936,2039557.0
333,bouna,9.136467636925218,-3.6361537984860206,71.7,92,0,3.8,CI,1565829936,2290849.0
334,batsfjord,72.6883582109705,30.651002483563246,43.8,91,100,14.09,NO,1565829936,780717.0
335,yumen,41.614193679420055,95.84293660441602,74.76,12,0,14.09,CN,1565829936,1528998.0
336,mahebourg,-37.2559314122051,68.39412678709644,69.01,83,2,1.99,MU,1565829937,934322.0
337,sabha,27.40265647173355,15.63858274777752,81.24,25,17,7.9,LY,1565829937,2212775.0
338,progreso,25.06037187592422,-90.6315323403844,45.28,65,0,14.81,UY,1565829937,3440963.0
339,trat,10.566234804492169,101.97286575348289,84.96,88,20,4.7,TH,1565829937,1605279.0
340,brae,68.61643330965964,-1.162834429490914,56.41,87,90,12.75,GB,1565829938,2654970.0
341,kargil,35.22575850093213,75.59870622939809,49.02,73,2,8.12,PK,1565829938,1267776.0
342,ovalle,-30.72449771161572,-71.63294430183966,50.46,93,85,4.61,CL,1565829938,3877918.0
343,hokitika,-40.50665624040959,167.32469486861208,49.2,68,82,3.42,NZ,1565829938,2206894.0
344,talnakh,75.56179958585903,87.77599548284309,51.8,81,0,6.71,RU,1565829939,1490256.0
345,mayya,60.57354632243539,130.3891398886999,69.8,52,40,6.71,RU,1565829939,2020121.0
346,qianan,44.35679923342519,123.84316103819856,74.04,82,100,3.04,CN,1565829939,2035410.0
347,yar-sale,66.4187715743135,71.58097552518939,55.68,83,79,8.08,RU,1565829939,1486321.0
348,borogontsy,62.61670070483842,131.0943374981137,68.1,54,100,8.88,RU,1565829940,2026160.0
349,oum hadjer,12.847244642774129,19.169508673921996,81.24,70,51,6.73,TD,1565829940,2426370.0
350,sindand,33.15617821777532,62.520308262034234,,,,,,,
351,wausau,45.00598179671886,-89.8346430633705,68.34,64,40,2.66,US,1565829941,5278120.0
352,kholtoson,50.15712199888836,103.49369514268466,40.92,91,1,3.24,RU,1565829941,2022369.0
353,padang,-6.814283237199945,94.15017386419788,80.88,82,80,8.28,ID,1565829941,1633419.0
354,santa cecilia,-26.811823103396506,-50.63199779455587,70.38,64,0,11.41,CR,1565829942,3621659.0
355,ancud,-41.22543796734634,-99.96698722920092,42.8,87,0,2.24,CL,1565829942,3899695.0
356,yulara,-25.493508780353665,124.69131214809585,59.0,21,0,4.7,AU,1565829942,6355222.0
357,lolua,-9.03430682125581,172.752627472962,,,,,,,
358,elat,28.657162183297785,33.876773296964956,65.76,99,79,2.95,CM,1565829943,2232283.0
359,bratsk,55.75813900451706,102.36684964479161,55.2,87,94,2.24,RU,1565829943,2051523.0
360,carrizal,10.286501171314185,-66.98391939018735,75.2,88,40,5.82,VE,1565829944,3646451.0
361,poum,-20.74855438217844,157.80574647276086,57.66,91,5,3.67,MK,1565829944,787487.0
362,ahipara,-33.07636681860827,163.70767954701205,61.0,100,87,1.01,NZ,1565829944,2194098.0
363,nouadhibou,20.50270509087443,-15.880612903659767,69.8,83,0,17.22,MR,1565829945,2377457.0
364,vila velha,-30.454094318496125,-24.227930710381713,79.16,74,40,8.05,BR,1565829945,6320062.0
365,aflu,32.208495984992965,-0.2925067630112608,,,,,,,
366,sao joao da barra,-31.216535976054843,-26.095079181151448,63.78,71,47,14.03,BR,1565829946,3448903.0
367,barbar,17.284763124694024,33.07265778272887,,,,,,,
368,rio gallegos,-49.54415004066844,-67.0068958132318,28.4,86,0,9.17,AR,1565829894,3838859.0
369,ulaangom,47.37172363570974,92.20081454413258,63.06,53,100,5.19,MN,1565829946,1515029.0
370,pauini,-6.879738039473651,-68.14384205850254,77.46,47,72,2.53,BR,1565829946,3662927.0
371,jiujiang,29.76333483057566,116.06377827911194,82.86,72,0,2.33,CN,1565829947,1805179.0
372,aripuana,-9.99998519963917,-60.81248194367012,78.72,42,43,1.45,BR,1565829947,3665202.0
373,saint-augustin,52.50797426846688,-57.932890810549196,67.77,49,40,2.24,CA,1565829947,6138501.0
374,chimbote,-12.074110197756468,-84.95536398796573,60.36,93,53,7.54,PE,1565829947,3698304.0
375,formoso do araguaia,-11.062087609532597,-51.0167205609776,,,,,,,
376,xiongzhou,24.77601765333489,115.28892576034133,85.44,74,0,4.47,CN,1565829947,6957998.0
377,matara,4.205441371270979,80.49012778748084,49.38,54,0,0.98,BI,1565829948,425378.0
378,banyumas,-7.83026051826964,109.18256602654878,73.32,84,51,2.57,ID,1565829948,1650095.0
379,keroka,-0.9314628485695096,34.99698557765723,63.24,66,50,8.16,KE,1565829948,192869.0
380,paita,-7.286584384184877,-86.01448758279908,61.8,93,30,14.9,PE,1565829919,3694112.0
381,wageningen,4.498778699318052,-57.105348942573286,60.66,93,90,8.05,NL,1565829949,2745088.0
382,batagay-alyta,66.8257120610698,128.7781411127575,63.06,32,0,2.3,RU,1565829949,2027042.0
383,okha,55.321821761197185,143.97366264863865,60.54,81,91,10.96,RU,1565829949,2122614.0
384,karaton,45.82757175682519,52.497288703466495,79.43,69,20,4.7,ID,1565829949,1630058.0
385,boysun,38.512469272546866,67.48828466337582,41.64,60,0,1.23,UZ,1565829949,1217734.0
386,komsomolskiy,68.96693524415721,172.17471007793984,49.56,99,100,6.53,RU,1565829950,1486910.0
387,sola,-14.695722172602885,167.3507045066553,64.14,44,0,11.25,TZ,1565829950,151211.0
388,alofi,-17.200322229587968,-170.39419167078557,78.8,74,75,10.29,NU,1565829950,4036284.0
389,benguela,-12.817065492818159,13.30479121338243,68.1,89,57,5.84,AO,1565829950,3351663.0
390,nome,68.54633583932164,-167.1047255813147,79.34,78,1,9.17,US,1565829950,4732862.0
391,stornoway,58.011440535357764,-8.905598816636513,,,,,,,
392,amahai,-1.8350026658847298,128.56196372071457,76.74,86,86,9.78,ID,1565829951,1651591.0
393,bernalillo,35.040947615178624,-105.97092347763946,78.91,23,17,20.8,US,1565829951,5457198.0
394,amderma,77.84557986430127,67.68268114684787,,,,,,,
395,alappuzha,9.351913798274651,74.94342731313367,,,,,,,
396,sao miguel do araguaia,-13.709577628905606,-51.540023435227624,75.84,27,0,3.31,BR,1565829951,3448455.0
397,puerto colombia,12.906598233783527,-75.76210134404741,84.2,79,40,6.93,CO,1565829952,3671497.0
398,lalibela,11.671724386136361,39.2836102234931,55.86,85,0,0.85,ET,1565829952,332288.0
399,tura,68.10339451304876,100.45950956476639,51.0,76,24,6.87,RU,1565829952,2014833.0
400,toliary,-24.554073672286137,40.86218524704606,,,,,,,
401,nata,-20.14145358643495,26.663648102064997,61.26,32,0,11.86,BW,1565829952,933238.0
402,glendive,48.12887729318015,-105.34410023881829,76.73,44,1,3.36,US,1565829953,5654391.0
403,yeehaw junction,27.554431448136995,-81.04987587358437,,,,,,,
404,oriximina,0.23072748532391074,-55.18708649628692,82.14,72,24,4.25,BR,1565829953,3393471.0
405,dingli,35.367935085232304,14.222336646046756,85.74,64,92,4.16,IN,1565829953,1259693.0
406,te anau,-43.050053417314906,161.9710094141646,44.88,77,86,6.82,NZ,1565829953,2181625.0
407,derzhavinsk,48.86482477235066,65.41955314738985,62.88,57,100,5.41,KZ,1565829954,1524606.0
408,senaki,42.29491052819549,42.03528579988878,80.6,51,0,17.22,GE,1565829954,612053.0
409,tautira,-18.486535804477114,-148.38031972978038,84.09,62,20,12.75,PF,1565829954,4033557.0
410,qandala,13.955604588406388,49.515960886120155,88.98,47,1,23.82,SO,1565829954,53157.0
411,zelenoborskiy,66.63505553376493,32.61632586186306,50.64,98,99,1.72,RU,1565829954,463838.0
412,yershichi,53.42232357164866,32.87995177600533,63.6,95,100,12.17,RU,1565829955,467134.0
413,russell,-31.72108560521461,177.02970070509775,81.37,54,1,10.29,US,1565829859,4278471.0
414,hami,44.763658414434985,96.52241957272594,85.38,9,8,13.91,CN,1565829955,1529484.0
415,upernavik,77.52508261601128,-58.836574450026305,42.18,65,0,4.07,GL,1565829955,3418910.0
416,fairbanks,65.35052064279395,-143.69443148730687,59.49,63,90,14.99,US,1565829916,5861897.0
417,uyemskiy,65.92064480508537,41.561384310075056,51.8,100,40,4.47,RU,1565829956,477579.0
418,moville,55.330960621364994,-7.025029338878511,73.02,64,75,5.82,US,1565829956,4868306.0
419,ihosy,-22.727341729448725,46.17111553028522,54.42,96,40,4.43,MG,1565829956,1064275.0
420,sabang,6.028254979515538,94.26182922751042,86.0,77,100,6.26,PH,1565829956,1726279.0
421,gurupa,-1.733744718065097,-51.49065206386291,,,,,,,
422,severo-kurilsk,50.65176608279856,154.77075204247535,48.66,95,95,9.28,RU,1565829957,2121385.0
423,ransang,10.450595320302412,116.04416871846757,,,,,,,
424,kutum,13.482159787221434,25.222174261587213,80.34,44,82,5.57,SD,1565829957,371745.0
425,san cristobal,0.6780126942168607,-85.9860502458313,74.58,71,32,8.5,HN,1565829957,3609418.0
426,santo tomas,-14.600596267689085,-72.32006860618533,84.11,79,40,3.36,PH,1565829957,1687543.0
427,verkhoyansk,66.10784726898737,133.17039092588436,69.18,31,0,1.88,RU,1565829958,2013465.0
428,sioux lookout,55.81270832332419,-89.66136097054407,67.26,55,90,3.67,CA,1565829958,6148373.0
429,port blair,13.721371262983482,90.73798991442726,83.04,81,100,14.83,IN,1565829958,1259385.0
430,botou,37.73236289811548,116.82243739360774,76.92,77,0,4,CN,1565829958,1816256.0
431,lagoa,50.80389734426066,-33.52320715482955,78.53,39,0,2.24,PT,1565829958,2267254.0
432,kribi,2.536805954154417,10.046073854757338,77.64,86,21,13.33,CM,1565829959,2229761.0
433,arlington,41.63061048951255,-73.90185000286259,91.31,43,1,5.12,US,1565829887,4671240.0
434,port hedland,-17.588614721947962,119.27253107871599,69.8,88,75,4.7,AU,1565829959,2063042.0
435,mbanza-ngungu,-5.591500220314131,15.837509515616688,70.98,73,16,5.12,CD,1565829959,2312888.0
436,tocopilla,-22.687841476552748,-71.43672742448241,57.3,84,83,1.95,CL,1565829869,3869716.0
437,voh,-22.972764706040707,163.1848861298294,70.8,76,49,25.66,NC,1565829960,2137748.0
438,xiaoweizhai,25.771348491655715,107.92823964996359,71.88,87,52,2.24,CN,1565829960,1789945.0
439,ilo,-20.00123880351967,-74.08101241609202,56.94,93,17,4.56,PE,1565829960,3938415.0
440,brigantine,35.80427197093107,-71.00792134436536,72.39,88,75,5.82,US,1565829960,4500920.0
441,half moon bay,31.70697488159655,-133.45540496037066,86.74,27,1,19.46,US,1565829961,5354943.0
442,katangli,51.6892672226019,143.71507129476214,66.3,65,86,2.1,RU,1565829961,2122783.0
443,manggar,-3.278228992102129,106.68257287407579,78.36,84,92,6.31,ID,1565829961,1636426.0
444,weligama,2.8131349964625514,78.97736782718266,81.78,83,100,15.05,LK,1565829961,1223738.0
445,bam,28.739260235935504,59.6374281675663,56.22,31,0,3.98,IR,1565829962,141736.0
446,tawau,4.8423626616229,117.36828184361508,82.4,83,75,0.85,MY,1565829962,1734199.0
447,saint-joseph,-29.728648938242394,54.350164550222104,66.29,68,0,3.36,FR,1565829962,3037456.0
448,mindelo,15.501968552497033,-27.78768715461723,64.81,100,75,6.93,PT,1565829962,2739997.0
449,nishihara,22.513023136380554,132.57068352845096,87.3,74,75,17.22,JP,1565829963,1850144.0
450,santiago,7.159230849908781,127.75743060268695,81.78,72,100,2.46,PH,1565829854,1687801.0
451,salinas,-2.2621802692726334,-84.661037361372,85.28,53,1,11.41,US,1565829963,5391295.0
452,tacuati,-23.11873609537463,-56.4416738567877,56.94,40,33,4.74,PY,1565829963,3436880.0
453,miles city,46.28538578828929,-106.70202442765401,79.23,30,40,5.82,US,1565829963,5666176.0
454,one hundred mile house,52.058937253894186,-120.62833389193631,,,,,,,
455,ramos arizpe,25.528545999398034,-101.01391947947037,79.72,44,40,17.22,MX,1565829964,3991043.0
456,fare,-14.076584418224257,-150.31314159050925,78.54,75,42,9.71,PF,1565829964,4034496.0
457,ziyang,29.895635048064136,104.81954046136826,75.66,76,0,2.75,CN,1565829964,1783683.0
458,ahuimanu,28.36457111474212,-155.13528210527303,86.9,62,20,14.99,US,1565829965,5856516.0
459,kamenskoye,62.92697029737863,171.8659173453592,,,,,,,
460,bud,63.903900891051876,6.038941643678186,47.44,93,24,8.05,NO,1565829965,7626370.0
461,tessalit,23.405640899329143,1.1741320783218612,85.38,46,100,12.62,ML,1565829965,2449893.0
462,asau,-15.043141107115517,176.64026269416235,,,,,,,
463,karla,59.19271398123456,21.43894722114507,53.33,93,0,8.05,EE,1565829966,590447.0
464,barawe,-4.3257855205355895,47.99880289934657,,,,,,,
465,kodinsk,58.71566983337826,98.67065609808526,56.22,77,0,2.53,RU,1565829966,1503037.0
466,the valley,25.016085438086165,-61.480638364632526,83.35,79,20,11.41,AI,1565829755,3573374.0
467,hit,33.23669098052804,42.975488822036255,89.16,21,1,15.5,IQ,1565829967,95788.0
468,grafton,-29.496732093796773,152.35725068848075,63.91,82,0,2.24,AU,1565829967,2164771.0
469,sahrak,34.42100181578124,63.28171997991893,,,,,,,
470,tynda,54.776379864885456,124.16019210841984,55.5,92,36,4.32,RU,1565829968,2014718.0
471,pathein,17.628806258737185,93.17655408027514,79.8,91,100,5.35,MM,1565829968,1328421.0
472,vardo,75.6472795623163,32.92702759750492,76.8,83,40,1.88,US,1565829968,4372777.0
473,tibacuy,4.219391163809647,-72.2820039789207,53.6,62,75,12.75,CO,1565829968,3682274.0
474,jenbach,47.56982656451345,11.800584192510144,47.59,87,1,2.24,AT,1565829968,7872630.0
475,gat,24.365806447130183,4.9512455537416145,80.49,69,75,2.24,SN,1565829969,2249901.0
476,narsaq,77.7699881829219,-68.43651851935914,55.4,26,0,13.87,GL,1565829969,3421719.0
477,samdrup jongkhar,26.69835783416248,91.47779712134161,65.04,96,70,3.04,IN,1565829969,1337388.0
478,spas-demensk,54.60053658157918,33.96368151181241,65.76,97,100,8.75,RU,1565829969,489868.0
479,wlodawa,51.6204792938544,23.292825978157396,53.6,93,0,5.82,PL,1565829970,755474.0
480,nam tha,20.61899729271819,101.82526507481595,,,,,,,
481,mareeba,-14.184522353688067,143.46523037749154,71.85,69,90,17.22,AU,1565829970,2158767.0
482,tilichiki,59.13226419617865,168.89754341798107,65.58,54,0,10.04,RU,1565829970,2120591.0
483,anaco,9.714293362760074,-64.64460377293436,73.68,96,91,6.2,VE,1565829970,3486270.0
484,uribia,11.98624294603016,-72.27239797593002,85.38,62,100,18.3,CO,1565829971,3666409.0
485,spokane,47.82403275562032,-117.42350019733495,83.32,20,20,12.75,US,1565829971,5811696.0
486,venice,26.50674473216496,-83.98376987130345,82.6,83,20,9.17,US,1565829971,4176380.0
487,ibate,-21.886190401274746,-47.98591983199299,54.91,77,0,16.11,BR,1565829712,3461625.0
488,filadelfia,-22.510305379106413,-60.372911655597164,56.22,28,14,6.22,PY,1565829973,3867291.0
489,kassala,15.462109211497804,36.5776024622167,79.26,76,57,9.53,SD,1565829973,372753.0
490,tabou,-3.28522573219675,-5.164865259660644,74.76,91,91,5.01,CI,1565829973,2281120.0
491,porto de moz,-1.82592777762477,-52.06267133208351,79.08,77,42,3.89,BR,1565829734,3391387.0
492,dudinka,72.91136944755732,86.94642620005362,51.8,81,0,6.71,RU,1565829973,1507116.0
493,gamba,-4.980501072693002,7.248345158437701,42.0,75,96,1.79,CN,1565829974,1281256.0
494,cap malheureux,-17.94471931164,58.41686335806284,69.01,83,0,1.99,MU,1565829974,934649.0
495,coleraine,54.98520546549622,-6.579243347703681,49.38,66,82,15.93,AU,1565829974,2171040.0
496,butwal,27.625689846317414,83.35382972503169,68.1,94,32,3.96,NP,1565829974,1283562.0
497,nizhniy ingash,56.563693065109135,96.45008492255562,51.9,81,32,6.24,RU,1565829975,1497497.0
498,manica,-19.370792426471823,32.93577951255935,62.6,100,0,2.84,MZ,1565829975,882955.0
499,wynyard,51.372229902022156,-104.09618010317432,55.99,66,69,1.99,AU,1565829975,2142747.0
500,tamasane,-22.30221114508312,27.141423504604887,55.86,50,0,3.02,BW,1565829975,933030.0
501,krasnouralsk,58.40120737535807,60.043385201533226,51.36,95,33,2.48,RU,1565829976,1502060.0
502,yuzhne,46.6687945616267,31.287500074318643,64.4,55,0,8.95,UA,1565829976,693325.0
503,vanimo,0.5223364899832603,142.59027831669755,80.88,76,92,7.07,PG,1565829976,2084442.0
504,katsuura,28.439504551007133,145.01219511672696,80.65,94,75,44.96,JP,1565829976,1865309.0
505,ambilobe,-10.784667698702506,51.46769694435761,67.2,86,0,4.94,MG,1565829976,1082243.0
506,fenoarivo atsinanana,-17.17013016453727,49.24945867638681,59.28,71,44,4.21,MG,1565829977,1064980.0
507,wuwei,36.90317885422536,102.8629131059559,71.01,38,0,6.42,CN,1565829977,1803936.0
508,susanville,41.27649987994036,-119.54445606099392,90.36,7,1,12.75,US,1565829977,5572400.0
509,ziro,28.98590969087651,93.32824589654382,60.72,95,44,1.77,IN,1565829977,1252668.0
510,baena,37.561554633139,-4.347916175068747,75.7,44,0,4.7,ES,1565829977,2521415.0
511,miraflores,-1.0993689705974816,-72.23690326378046,57.2,24,0,2.01,PE,1565829978,3947322.0
512,ikole,8.304725184467102,5.451292862716144,,,,,,,
513,anaconda,46.65430923391261,-112.8145483983293,75.07,27,75,10.29,US,1565829978,5637146.0
514,karasjok,69.08728522459418,24.531609226033424,46.4,100,100,9.17,NO,1565829978,779350.0
515,slave lake,55.23029103624748,-114.32274392710895,69.8,68,75,10.29,CA,1565829725,6149374.0
516,warqla,28.86502660963575,3.5405258217959954,,,,,,,
517,alekseyevka,54.8306359364793,55.29933925393635,55.4,93,90,1.57,RU,1565829979,548625.0
518,khorinsk,52.14638808968169,109.2465133506135,49.2,76,37,4.09,RU,1565829979,2022304.0
519,vila franca do campo,40.88677994751259,-18.774968484478535,68.0,88,20,2.24,PT,1565829979,3372472.0
520,henties bay,-21.688015537292074,3.479934364623972,52.0,93,0,1.99,NA,1565829979,3356832.0
521,ambodifototra,-17.364052240152475,52.28329327732766,,,,,,,
522,barra,-11.487035450022276,-43.65653257161489,78.8,83,75,2.24,GM,1565829980,2413827.0
523,jhang,31.46007622943243,72.32007854054544,77.52,100,20,3.36,PK,1565829980,1162738.0
524,taoudenni,23.749503476655576,-7.016763453383476,100.68,20,1,7.94,ML,1565829980,2450173.0
525,alenquer,-0.10715925842606566,-54.49503556989548,82.4,88,20,4.7,BR,1565829980,3407980.0
526,tasbuget,44.696953982666656,64.80946124276772,,,,,,,
527,touros,1.5373912833480148,-26.58339149375834,73.4,94,40,2.24,BR,1565829981,3386213.0
528,krutikha,54.20098117611383,80.95283220499346,57.66,84,74,2.64,RU,1565829981,1501706.0
529,charters towers,-22.005088900265264,144.2144641737691,67.92,55,57,11.43,AU,1565829981,2171722.0
530,freeport,28.122137935698305,-94.94474438219589,84.2,74,40,5.82,BS,1565829981,3572375.0
531,saint-pierre,45.25169239570923,-55.915873717218815,62.62,77,90,14.99,FR,1565829982,2995603.0
532,dukat,60.42483438861197,155.14062541191424,79.0,58,17,11.01,AL,1565829982,3184575.0
533,hopkinsville,36.97980838308756,-87.62122074386455,81.61,61,1,4.25,US,1565829712,4295251.0
534,abu samrah,23.79796719679348,49.57927651880195,70.98,70,0,8.55,SY,1565829982,172515.0
535,aklavik,78.93342060854852,-141.71380360546726,53.6,81,75,19.46,CA,1565829983,5882953.0
536,lavrentiya,66.62520068872925,-170.5659734179921,56.76,65,30,9.8,RU,1565829983,4031637.0
537,diego de almagro,-25.451372265318838,-69.26056155161626,51.0,80,83,2.06,CL,1565829983,3892454.0
538,evensk,60.980740126423285,160.9819618663879,64.68,48,35,1.19,RU,1565829983,2125693.0
539,halmstad,56.57916122680186,12.621465485537072,53.37,87,83,2.24,SE,1565829983,2708365.0
540,puerto escondido,7.780811418167545,-99.85440910469788,84.2,66,75,6.93,MX,1565829984,3520994.0
541,mihijam,23.929911110635473,86.87709795943857,78.8,94,90,6.93,IN,1565829984,1265711.0
542,nioro,17.235798490191627,-10.394062622354198,74.58,82,73,10.63,GM,1565829984,2413070.0
543,sakaiminato,36.333142504915,133.246042039386,85.17,70,75,21.92,JP,1565829984,1853174.0
544,englewood,25.813277091702645,-83.54888264288631,85.98,13,20,12.75,US,1565829741,5421250.0
545,jurado,6.142365046135694,-79.07259157322915,,,,,,,
546,belmonte,-17.410901110445394,-34.038205208647554,69.78,69,0,1.83,PT,1565829985,8010472.0
547,vila do maio,13.115607953657289,-21.017697713434558,77.0,73,0,9.17,CV,1565829985,3374120.0
548,chimore,-16.477233535066034,-64.57477761604876,63.78,54,13,3.8,BO,1565829986,3920736.0
549,san rafael del sur,9.809441475903085,-88.82106578274797,82.4,78,40,6.93,NI,1565829986,3616594.0
550,beringovskiy,61.200741700043096,178.353662921031,47.4,69,100,4.74,RU,1565829986,2126710.0
551,nianzishan,47.5673747893625,123.01383706255518,69.0,65,20,1.43,CN,1565829986,2035593.0
552,buala,-3.001119715776426,163.08463938062846,83.22,75,3,14.99,SB,1565829986,2109528.0
553,murayama,38.433809551485666,140.47116481133259,86.49,66,20,2.24,JP,1565829987,2110793.0
554,lindi,-9.095810779964424,40.35661878776986,73.4,88,75,11.41,TZ,1565829987,878281.0
555,geraldton,-28.62455564366877,113.65886693400427,66.2,45,75,3.36,CA,1565829987,5960603.0
556,mocambique,-15.005111460142317,43.13221715345529,,,,,,,
557,athens,39.342528604201675,-82.33232034705453,75.34,60,0,2.48,GR,1565829987,264371.0
558,abnub,26.570949146162135,28.570666196922957,85.02,18,7,12.1,EG,1565829987,362973.0
559,kokopo,-5.72589033262976,152.39884465073152,86.1,58,23,1.74,PG,1565829988,2093685.0
560,luganville,-15.009570240046003,163.49360666011268,80.6,74,75,11.41,VU,1565829988,2136150.0
561,tandur,17.436300540211974,77.65653138223422,73.32,93,100,2.53,IN,1565829988,7302806.0
562,san ramon,-12.937052837774232,-65.56581656109829,71.16,82,60,4,NI,1565829988,3616584.0
563,golfito,8.799832621585509,-83.18812281247709,74.22,98,100,0.92,CR,1565829989,3623656.0
564,warmbad,-28.606672753917508,18.805758111117484,48.15,87,15,2.24,DE,1565829989,3305808.0
565,moshkovo,54.95736709676862,83.53976960712583,50.0,100,40,4.09,RU,1565829989,1498389.0
566,la union,17.898689388513503,-101.79750530846209,79.0,1,62,1.99,GT,1565829989,3593500.0
567,leningradskiy,78.68263145088983,178.20156800299912,36.06,87,97,11.01,RU,1565829989,2123814.0
568,kirakira,-10.0149227164234,163.37427189826724,83.94,69,3,12.44,SB,1565829990,2178753.0
569,eureka,41.36523655628122,-132.53050777578258,67.93,72,1,13.87,US,1565829990,5563397.0
570,seydi,39.643545397161915,63.3335607358392,81.6,65,13,15.86,NE,1565829990,2448024.0
571,betare oya,5.6105080696689384,13.979535108063118,65.94,96,65,2.06,CM,1565829990,2234339.0
572,san jose,-18.738917153348225,-61.21541603847227,87.8,43,75,11.41,HN,1565829963,3602137.0
573,bethanien,-26.113234436021187,17.28102812635072,46.32,55,0,0.54,NA,1565829991,3358416.0
574,cabarroguis,16.43801445921234,121.58777593060961,81.78,72,100,2.46,PH,1565829991,1721777.0
575,vuktyl,63.20813426878692,59.48022458560513,47.58,95,85,4.07,RU,1565829991,470905.0
576,labuhan,-14.215682117756842,99.56693932050223,75.3,81,55,0.31,ID,1565829991,1641899.0
577,eyl,5.515624388314848,53.87090578816924,72.96,68,3,30.6,SO,1565829991,60019.0
578,dickinson,47.70964127228916,-102.49288872878223,76.26,38,1,4.7,US,1565829992,5688789.0
579,balasinor,22.841877285711632,73.34849125953659,,,,,,,
580,kurilsk,46.84047175960859,147.7786112299869,58.38,83,81,3.65,RU,1565829992,2123979.0
581,olafsvik,63.39165771937263,-24.896343639268622,,,,,,,
582,jumla,31.751175467176438,82.17556352640958,56.04,96,100,0.65,NP,1565829992,1283285.0
583,barvinkove,49.11799539116126,36.98933755639234,67.92,49,0,7.05,UA,1565829993,712794.0
584,monrovia,0.4468735490543736,-15.558504752459527,77.0,94,75,9.57,LR,1565829993,2274895.0
585,opuwo,-18.691777992666303,10.771222790497745,62.34,22,0,6.26,NA,1565829993,3354077.0
586,rundu,-18.51548857766528,20.360456546491378,62.6,29,0,2.24,NA,1565829994,3353383.0
587,acapulco,6.758026404990829,-103.57222279578995,87.8,74,20,11.41,MX,1565829994,3533462.0
588,gazojak,39.96501432660966,61.52640520140474,62.7,33,0,5.61,TM,1565829994,1514792.0
589,gobabis,-22.137047575715627,18.86331163482822,53.6,30,0,1.12,NA,1565829994,3357247.0
590,burica,4.501989090599693,-85.81398370829693,,,,,,,
591,mahuta,-11.126715512015522,39.58323542762537,64.5,86,1,1.5,TZ,1565829994,878121.0
592,boyolangu,-12.659141754516156,111.83267206460249,70.98,84,70,3.4,ID,1565829995,1648082.0
593,cartagena,11.954048330442163,-76.8164282575037,75.13,83,20,4.7,ES,1565829995,2520058.0
594,kamenka,71.16048671252807,45.64470991069945,64.99,84,0,3,MD,1565829995,618453.0
595,kegayli,43.07087950036106,58.383275055086784,,,,,,,
596,hobyo,5.3656201197241415,51.619498413814654,74.58,76,97,22.46,SO,1565829995,57000.0
597,magaria,12.652332256669126,8.90259955210081,80.7,66,33,14,NE,1565829996,2441482.0
598,tabukiniberu,-0.6693850062235072,175.78206802930032,,,,,,,
599,lakes entrance,-40.14535563184512,151.15729305378818,57.87,52,1,10.29,AU,1565829996,2160735.0
600,thinadhoo,0.2530222317859341,64.93447582614027,82.14,73,99,3.33,MV,1565829996,1337610.0
601,cururupu,2.246380900387095,-43.19238869544009,74.04,94,51,2.98,BR,1565829996,3401148.0
602,banjar,-13.831132839323942,106.07754858305202,72.78,88,85,1.12,ID,1565829997,1650233.0
603,abu zabad,13.449000185025369,28.925091684803903,73.86,86,52,10.69,SD,1565829997,380348.0
604,novobirilyussy,57.62127982647368,90.17169768761198,52.08,78,66,8.63,RU,1565829997,1508260.0
605,sao felix do xingu,-6.708777580042295,-50.90176779714534,76.92,45,51,1.45,BR,1565829815,3388847.0
606,digras,20.14566344966525,77.56362830420005,72.96,91,100,6.87,IN,1565829997,1272596.0
607,tagusao,10.7226226203625,116.20618484645615,81.96,75,93,5.26,PH,1565829998,1684245.0
608,vestmannaeyjar,58.44639711674995,-21.638397894618493,50.28,76,100,4.03,IS,1565829998,3412093.0
609,beloha,-34.00552301459557,42.321846063920106,64.86,97,1,6.22,MG,1565829998,1067565.0
610,qingdao,35.260710716787926,121.9556068460621,79.59,83,75,8.95,CN,1565829998,1797929.0
611,hurricane,36.92736830038476,-113.23092626771303,96.44,7,1,8.05,US,1565829779,5540831.0
612,shitanjing,39.857827362541684,104.53963352927633,78.54,21,0,9.44,CN,1565829999,1794971.0
613,namwala,-16.10911625148863,25.962001505807564,55.86,41,0,3.58,ZM,1565829999,901766.0
